Country.x,State.Region,City,Meetup,Twitter,Email,Facebook,Instagram,Periscope,Youtube,GitHub,Website,Slack,Organizers,Status,Country.y,City.y,Region.x,Population.x,Latitude.x,Longitude.x,Country.x.x,City.y.y,Region.y,Population.y,Latitude.y,Longitude.y,Country.y.y,City.y.y.y,Region,Population,Latitude,Longitude
Worldwide,NA,Remote,https://www.meetup.com/rladies-remote/,https://twitter.com/rladiesremote,remote@rladies.org,NA,NA,NA,NA,NA,NA,https://rladies-remote.slack.com,"Angela Castillo-Gill, Auriel Fournier, Charles T. Gray, Abigail Lebrecht, Steph De Silva, Heather Turner",Active,us,remote,OR,NA,43.006111100000005,-123.8913889,us,remote,OR,NA,43.006111100000005,-123.8913889,us,remote,OR,NA,43.006111100000005,-123.8913889
Algeria,NA,Algiers,NA,NA,NA,NA,NA,NA,NA,NA,NA,NA,"Kamila Benadrouche, Lounas Fairouz, Zibani Fazia",Prospective,dz,algiers,01,1980242,36.7630556,3.0505556,dz,algiers,01,1980242,36.7630556,3.0505556,dz,algiers,01,1980242,36.7630556,3.0505556
Argentina,Buenos Aires,Buenos Aires,https://www.meetup.com/rladies-buenos-aires/,https://twitter.com/RLadiesBA,buenosaires@rladies.org,https://www.facebook.com/RladiesBA/,https://www.instagram.com/rladiesba/,NA,https://www.youtube.com/channel/UCztAJhENVqsqv0cvyxs4sgg,https://github.com/rladies/meetup-presentations_buenosaires,NA,NA,"Paola Corrales, Florencia D'Andrea, Monica Alonso, Priscilla Minotti, Jimena Saucedo, Maria Nanton, Andrea Gomez,",Active,ar,buenos aires,07,NA,-34.5875,-58.6725,ar,buenos aires,07,NA,-34.5875,-58.6725,ar,buenos aires,07,NA,-34.5875,-58.6725
Argentina,Buenos Aires,La Plata,https://www.meetup.com/rladies-la-plata/,https://twitter.com/RLadies_LP,laplata@rladies.org,NA,NA,NA,NA,NA,NA,NA,"Sol Represa, Myrian Aguilar, Daniela Esquivel",Active,ar,la plata,01,684318,-34.921454,-57.954533,ar,la plata,01,684318,-34.921454,-57.954533,ar,la plata,01,684318,-34.921454,-57.954533
Argentina,Chaco-Corrientes,Resistencia-Corrientes,https://www.meetup.com/rladies-resistencia-corrientes/,https://twitter.com/RLadies_rciacte,rciactes@rladies.org,https://www.facebook.com/R-Ladies-Rcia-Ctes,NA,NA,NA,NA,NA,NA,"Patricia Loto, Roxana Noelia Villafañe",Active,NA,NA,NA,NA,NA,NA,NA,NA,NA,NA,NA,NA,NA,NA,NA,NA,NA,NA
Argentina,Córdoba,Córdoba,https://www.meetup.com/rladies-cordoba/,https://twitter.com/RLadiesCba,cordoba@rladies.org,https://www.facebook.com/RLadiesCba,NA,NA,NA,https://github.com/rladies/meetup-presentations_cordoba,NA,rladies-cordoba.slack.com,Juliana Benitez,Active,NA,NA,NA,NA,NA,NA,NA,NA,NA,NA,NA,NA,NA,NA,NA,NA,NA,NA
Argentina,La Pampa,General Pico,NA,NA,NA,NA,NA,NA,NA,NA,NA,NA,Marysol Gatti,Prospective,ar,general pico,11,55900,-35.656622,-63.756815,ar,general pico,11,55900,-35.656622,-63.756815,ar,general pico,11,55900,-35.656622,-63.756815
Argentina,La Pampa,Santa Rosa,https://www.meetup.com/rladies-santa-rosa/,https://twitter.com/RladiesSR,santarosa@rladies.org,https://www.facebook.com/pg/RLadiesSR,NA,NA,NA,https://github.com/rladies/meetup-presentations_santarosa,NA,NA,"Yanina Bellini Saibene, Marina Cock",Active,an,santa rosa,00,NA,12.116666699999998,-68.8833333,an,santa rosa,00,NA,12.116666699999998,-68.8833333,an,santa rosa,00,NA,12.116666699999998,-68.8833333
Argentina,Mendoza,Mendoza,https://www.meetup.com/rladies-mendoza/,https://twitter.com/RLadiesMza,mendoza@rladies.org,https://www.facebook.com/RLadiesMendoza,NA,NA,NA,https://github.com/rladies/meetup-presentations_mendoza,NA,NA,"Ana Laura Diedrichs, Jan Strappa, Brenda Canizo",Active,ar,mendoza,13,973047,-32.890845,-68.82717099999999,ar,mendoza,13,973047,-32.890845,-68.82717099999999,ar,mendoza,13,973047,-32.890845,-68.82717099999999
Argentina,Río Negro,Bariloche,https://www.meetup.com/rladies-bariloche/,https://twitter.com/RLadiesBRC,bariloche@rladies.org,https://www.facebook.com/rladies.bariloche,NA,NA,NA,NA,NA,rladies-brc.slack.com,"Lina Moreno Azócar, Sofía Ruiz, Paula Fergnani",Active,ar,bariloche,01,NA,-35.5,-62.233332999999995,ar,bariloche,01,NA,-35.5,-62.233332999999995,ar,bariloche,01,NA,-35.5,-62.233332999999995
Argentina,Santa Fe,Santa Fe,https://www.meetup.com/rladies-santa-fe/,https://twitter.com/RLadiesSantaFe,santafe@rladies.org,https://www.facebook.com/RLadiesSantaFe/,https://www.instagram.com/rladiessantafe/,NA,https://www.youtube.com/channel/UCOFcXLjW9atcEuCa5kbOPSw,https://github.com/rladies/meetup-presentations_santafe,NA,NA,"Melina Vidoni, Liza Dosso, Andrea Bergesio, Mariel Lovatto, Cecilia Román Miyasato",Active,ar,santa fe,21,456044,-31.629484,-60.701036,ar,santa fe,21,456044,-31.629484,-60.701036,ar,santa fe,21,456044,-31.629484,-60.701036
Argentina,Tierra del Fuego,Ushuaia,https://www.meetup.com/rladies-ushuaia/,https://twitter.com/RLadiesUshuaia,ushuaia@rladies.org,NA,NA,NA,NA,https://github.com/rladies/meetup-presentations_ushuaia,NA,NA,Lucía Rodríguez Planes,Active,ar,ushuaia,23,58045,-54.8,-68.3,ar,ushuaia,23,58045,-54.8,-68.3,ar,ushuaia,23,58045,-54.8,-68.3
Australia,NA,Adelaide,https://www.meetup.com/rladies-adelaide/,https://twitter.com/RLadiesAdelaide,adelaide@rladies.org,NA,NA,NA,NA,https://github.com/rladies/meetup-presentations_adelaide,NA,NA,"Marija Dmitrijeva, Helen Dockrell, Rachel Searston, Melaine Smith, Brittany Child",Active,au,adelaide,05,1074168,-34.928661,138.598633,au,adelaide,05,1074168,-34.928661,138.598633,au,adelaide,05,1074168,-34.928661,138.598633
Australia,NA,Cairns,NA,NA,NA,NA,NA,NA,NA,NA,NA,NA,Martha Cooper,Prospective,au,cairns,04,154318,-16.92304,145.766251,au,cairns,04,154318,-16.92304,145.766251,au,cairns,04,154318,-16.92304,145.766251
Australia,NA,Canberra,https://www.meetup.com/rladies-canberra/,https://twitter.com/RLadiesCanberra,canberra@rladies.org,NA,NA,NA,NA,NA,NA,NA,"Emi Tanaka, Alice Richardson, Petra Kuhnert, Pauline O'Shaughnessy, Jiali Wang",Active,au,canberra,01,324025,-35.27603,149.13435,au,canberra,01,324025,-35.27603,149.13435,au,canberra,01,324025,-35.27603,149.13435
Australia,NA,Melbourne,https://www.meetup.com/rladies-melbourne/,https://twitter.com/RLadiesMelb,melbourne@rladies.org,https://www.facebook.com/RladiesMelbourne,NA,NA,NA,https://github.com/rladies/meetup-presentations_melbourne,NA,NA,"Anna Quaglieri, Sepideh Foroutan, Alex Garnham, Marie Trussart, Lucy Liu, Adele Barugahare, Nikki Rubinson",Active,au,melbourne,07,3730212,-37.813938,144.963425,au,melbourne,07,3730212,-37.813938,144.963425,au,melbourne,07,3730212,-37.813938,144.963425
Australia,NA,Perth,https://www.meetup.com/rladies-perth/,https://twitter.com/rladiesperth,perth@rladies.org,NA,NA,NA,NA,NA,NA,NA,"Alyce Russell, Nicola Armstrong, Rebecca Lange, Sarita Bennett",Active,au,perth,06,NA,-41.571509999999996,147.171295,au,perth,06,NA,-41.571509999999996,147.171295,au,perth,06,NA,-41.571509999999996,147.171295
Australia,NA,Sydney,https://www.meetup.com/rladies-sydney/,https://twitter.com/RLadiesSydney,sydney@rladies.org,NA,NA,NA,NA,https://github.com/rladiessydney,https://rladiessydney.org/,NA,Jenny Richmond,Active,au,sydney,02,4394585,-33.861481,151.205475,au,sydney,02,4394585,-33.861481,151.205475,au,sydney,02,4394585,-33.861481,151.205475
Australia,NA,Townsville,NA,NA,NA,NA,NA,NA,NA,NA,NA,NA,Legana Fingerhut,Prospective,au,townsville,04,138959,-19.266389999999998,146.805695,au,townsville,04,138959,-19.266389999999998,146.805695,au,townsville,04,138959,-19.266389999999998,146.805695
Australia,Queensland,Brisbane,https://www.meetup.com/rladies-brisbane/,https://twitter.com/RLadiesBrisbane,brisbane@rladies.org,NA,NA,NA,NA,https://github.com/rladies/meetup-presentations_brisbane,NA,r-ladiesbrisbane.slack.com,Paula Andrea Martinez,Active,au,brisbane,04,1843459,-27.471009999999996,153.024292,au,brisbane,04,1843459,-27.471009999999996,153.024292,au,brisbane,04,1843459,-27.471009999999996,153.024292
Austria,NA,Linz,https://www.meetup.com/rladies-linz/,https://twitter.com/RladiesLinz,linz@rladies.org,NA,NA,NA,NA,https://github.com/rladies/meetup-presentations_linz,NA,NA,Lucia Gjeltema,Retired on 29-09-2019,at,linz,04,181163,48.3,14.3,at,linz,04,181163,48.3,14.3,at,linz,04,181163,48.3,14.3
Austria,NA,Vienna,https://www.meetup.com/rladies-vienna/,https://twitter.com/RLadiesVienna,vienna@rladies.org,NA,NA,NA,NA,NA,NA,NA,Laura Vana,Active,at,vienna,09,1569315,48.2,16.366667,at,vienna,09,1569315,48.2,16.366667,at,vienna,09,1569315,48.2,16.366667
Bahrain,NA,Muharraq,NA,NA,NA,NA,NA,NA,NA,NA,NA,NA,Fatima Alaradi,Prospective,bh,muharraq,03,NA,26.2572222,50.6119444,bh,muharraq,03,NA,26.2572222,50.6119444,bh,muharraq,03,NA,26.2572222,50.6119444
Belgium,NA,Brussels,https://www.meetup.com/rladies-brussels/,https://twitter.com/RladiesBrussels,brussels@rladies.org,NA,NA,NA,NA,https://github.com/rladies/meetup-presentations_brussels,NA,NA,"Suzan Baert, Huong Nguyen",Active,be,brussels,11,1019022,50.833333,4.3333330000000005,be,brussels,11,1019022,50.833333,4.3333330000000005,be,brussels,11,1019022,50.833333,4.3333330000000005
Belgium,NA,Leuven,https://www.meetup.com/rladies-leuven/,https://twitter.com/RLadiesLeuven,leuven@rladies.org,NA,NA,NA,NA,https://github.com/rladies/meetup-presentations_leuven,NA,NA,"Theresa Elise Wege, Veronica Llorens",Active,be,leuven,12,92892,50.883333,4.7,be,leuven,12,92892,50.883333,4.7,be,leuven,12,92892,50.883333,4.7
Benin,NA,Cotonou,https://www.meetup.com/rladies-cotonou/,https://twitter.com/RLadiesCtn,cotonou@rladies.org,NA,NA,NA,NA,NA,NA,NA,"Nadejda Sero, Benedicta Essuon",Active,bj,cotonou,14,690584,6.35,2.4333332999999997,bj,cotonou,14,690584,6.35,2.4333332999999997,bj,cotonou,14,690584,6.35,2.4333332999999997
Bolivia,NA,La Paz,https://www.meetup.com/rladies-la-paz/,NA,lapaz@rladies.org,https://facebook.com/rladieslapaz,NA,NA,NA,NA,NA,NA,"Nathaly Alarcon, Orietha Castillo",Active,ar,la paz,01,NA,-35.3812,-59.386398,ar,la paz,01,NA,-35.3812,-59.386398,ar,la paz,01,NA,-35.3812,-59.386398
Brazil,NA,Brasilia,NA,NA,NA,NA,NA,NA,NA,NA,NA,NA,Glélcia Oliveira de Farias,Prospective,bo,brasilia,03,NA,-14.683333300000001,-65.1166667,bo,brasilia,03,NA,-14.683333300000001,-65.1166667,bo,brasilia,03,NA,-14.683333300000001,-65.1166667
Brazil,Amazonas,Manaus,NA,NA,NA,NA,NA,NA,NA,NA,NA,NA,"Themis Leão, Amazoneida Pinheiro, Camila Pinheiro, Márcia Brandão, Jocely Lopes, Paula dos Santos, Emilly Malveira, Hanna Oliveira, Yanna de Freitas, Ewila Costa",Prospective,br,manaus,04,1598227,-3.1133330000000004,-60.025278,br,manaus,04,1598227,-3.1133330000000004,-60.025278,br,manaus,04,1598227,-3.1133330000000004,-60.025278
Brazil,Bahia,Salvador,https://www.meetup.com/rladies-salvador/,https://twitter.com/RLadiesSalvador,salvador@rladies.org,NA,NA,NA,NA,NA,NA,NA,"Karla Patricia Santos Oliveira Rodriguez Esquerre, Júlia Carolina",Active,ao,salvador,02,NA,-11.395776,15.792647,ao,salvador,02,NA,-11.395776,15.792647,ao,salvador,02,NA,-11.395776,15.792647
Brazil,Espírito Santo,Vitória,https://www.meetup.com/rladies-vitória/,NA,vitoria@rladies.org,NA,NA,NA,NA,https://github.com/rladies/meetup-presentations_vitoria,NA,NA,"Ornella Scardua, Agatha Rodrigues",Active,ao,vitoria,12,NA,-7.758723,16.630148000000002,ao,vitoria,12,NA,-7.758723,16.630148000000002,ao,vitoria,12,NA,-7.758723,16.630148000000002
Brazil,Goiás,Goiânia,https://www.meetup.com/rladies-goiania/,NA,goiania@rladies.org,NA,NA,NA,NA,NA,NA,NA,Fernanda Kelly,Active,br,goiania,29,1171209,-16.666667,-49.266667,br,goiania,29,1171209,-16.666667,-49.266667,br,goiania,29,1171209,-16.666667,-49.266667
Brazil,Minas Gerais,Belo Horizonte,https://www.meetup.com/rladies-belo-horizonte/,https://twitter.com/RLadiesBH,belohorizonte@rladies.org,https://www.facebook.com/rladiesbh,https://www.instagram.com/rladiesbh/,NA,NA,https://github.com/rladies/meetup-presentations_belohorizonte,http://rladiesbh.com.br/,NA,"Layla Comparin, Larissa Fernandes, Numiá Gomes",Active,ao,belo horizonte,02,NA,-11.590095,16.54606,ao,belo horizonte,02,NA,-11.590095,16.54606,ao,belo horizonte,02,NA,-11.590095,16.54606
Brazil,Minas Gerais,Lavras,https://www.meetup.com/rladies-lavras/,NA,lavras@rladies.org,NA,NA,NA,NA,NA,NA,NA,"Izabela Oliveira, Paula Santos",Active,br,lavras,06,NA,-6.75,-38.95,br,lavras,06,NA,-6.75,-38.95,br,lavras,06,NA,-6.75,-38.95
Brazil,Paraiba,Campina Grande,NA,NA,NA,NA,NA,NA,NA,NA,NA,NA,"Hadrizia Santos, Dandara Sousa",Prospective,br,campina grande,03,NA,0.183333,-51.116667,br,campina grande,03,NA,0.183333,-51.116667,br,campina grande,03,NA,0.183333,-51.116667
Brazil,Parana,Curitiba,https://www.meetup.com/rladies-curitiba/,NA,curitiba@rladies.org,NA,NA,NA,NA,https://github.com/rladies/meetup-presentations_curitiba,NA,NA,"Bruna Wundervald, Larissa Ferreira, Aline, Maria Helena Oliveira",Active,br,curitiba,18,1718433,-25.416667,-49.25,br,curitiba,18,1718433,-25.416667,-49.25,br,curitiba,18,1718433,-25.416667,-49.25
Brazil,Pernambuco,Recife,https://www.meetup.com/rladies-recife/,NA,recife@rladies.org,NA,NA,NA,NA,https://github.com/rladies/meetup-presentations_recife,NA,NA,"Larissa Lima, Nathália Demetrio Vasconcelos Moura, Edneide Ramalho, Anny Kerollayny, Bruna Gregory Palm, Cristine Rauber Oliveira, Anabeth Petry Radünz, Ranah Duarte Costa, Luana Rodrigues, Heloisa de Melo Rodrigues",Active,br,recife,04,NA,-6.879167,-71.063056,br,recife,04,NA,-6.879167,-71.063056,br,recife,04,NA,-6.879167,-71.063056
Brazil,Piaui,Teresina,NA,NA,NA,NA,NA,NA,NA,NA,NA,NA,Rita de Cássia de Lima Idalino,Prospective,br,teresina,20,744526,-5.0833330000000005,-42.816666999999995,br,teresina,20,744526,-5.0833330000000005,-42.816666999999995,br,teresina,20,744526,-5.0833330000000005,-42.816666999999995
Brazil,Rio de Janeiro,Niteroi,https://www.meetup.com/rladies-niteroi/,NA,niteroi@rladies.org,NA,NA,NA,NA,NA,NA,NA,"Noelle Camello, Luciane Alcoforado, Julia Hellen Franco Ferreira",Active,NA,NA,NA,NA,NA,NA,NA,NA,NA,NA,NA,NA,NA,NA,NA,NA,NA,NA
Brazil,Rio de Janeiro,Rio de Janeiro,https://www.meetup.com/rladies-rio/,https://twitter.com/RLadiesRio,rio@rladies.org,https://www.facebook.com/rladiesrio,https://www.instagram.com/Rladiesrio/,NA,NA,https://github.com/rladies/meetup-presentations_rio,NA,NA,"Andrea Sánchez-Tapia, Beatriz Pinna, Clemencia Mora, Helena Riveiro, Priscila Hohberg, Sara Mortara",Active,br,rio de janeiro,21,6023742,-22.9,-43.233333,br,rio de janeiro,21,6023742,-22.9,-43.233333,br,rio de janeiro,21,6023742,-22.9,-43.233333
Brazil,Rio Grande do Norte,Natal,https://www.meetup.com/rladies-natal/,https://twitter.com/RladiesNatal,natal@rladies.org,https://www.facebook.com/R-ladies-Natal-1601745646525923/,NA,NA,NA,https://github.com/rladies/meetup-presentations_natal,NA,NA,"Lumi Mevi, Iara Dantas de Souza",Active,bo,natal,06,NA,-10.9666667,-69.25,bo,natal,06,NA,-10.9666667,-69.25,bo,natal,06,NA,-10.9666667,-69.25
Brazil,Rio Grande do Sul,Porto Alegre,https://www.meetup.com/rladies-porto-alegre/,https://twitter.com/RLadiesPOA,poa@rladies.org,https://www.facebook.com/RLadiesPortoAlegre/,NA,NA,NA,NA,NA,NA,Iara Passos,Active,NA,NA,NA,NA,NA,NA,NA,NA,NA,NA,NA,NA,NA,NA,NA,NA,NA,NA
Brazil,Santa Catarina,Florianópolis,https://www.meetup.com/rladies-florianopolis/,https://twitter.com/RLadiesFloripa,florianopolis@rladies.org,NA,NA,NA,NA,NA,NA,NA,Camila Thais Weber,Active,br,florianopolis,01,NA,-7.7,-72.65,br,florianopolis,01,NA,-7.7,-72.65,br,florianopolis,01,NA,-7.7,-72.65
Brazil,Santa Catarina,Lages,NA,NA,NA,NA,NA,NA,NA,NA,NA,NA,Simone Silmara Werner,Prospective,br,lages,05,NA,-10.933333,-42.35,br,lages,05,NA,-10.933333,-42.35,br,lages,05,NA,-10.933333,-42.35
Brazil,São Paulo,Americana,https://www.meetup.com/rladies-americana/,https://twitter.com/RLadiesAME,NA,NA,NA,NA,NA,NA,NA,NA,Mariana Mendes,Retired on 29-09-2019,br,americana,27,196026,-22.740278,-47.334444,br,americana,27,196026,-22.740278,-47.334444,br,americana,27,196026,-22.740278,-47.334444
Brazil,São Paulo,Piracicaba,NA,NA,NA,NA,NA,NA,NA,NA,NA,NA,Cristiane Hayumi Taniguti,Prospective,br,piracicaba,15,NA,-18.483333,-48.433333000000005,br,piracicaba,15,NA,-18.483333,-48.433333000000005,br,piracicaba,15,NA,-18.483333,-48.433333000000005
Brazil,São Paulo,Ribeirão Preto,https://www.meetup.com/rladies-ribeirao-preto/,NA,NA,NA,NA,NA,NA,NA,NA,NA,Francesca Belem Lopes Palmeira,Active,NA,NA,NA,NA,NA,NA,NA,NA,NA,NA,NA,NA,NA,NA,NA,NA,NA,NA
Brazil,São Paulo,São Carlos,NA,NA,NA,NA,NA,NA,NA,NA,NA,NA,"Mayara Formenton, Marina de Souza Paiva",Prospective,br,sao carlos,11,NA,-21.35,-55.233332999999995,br,sao carlos,11,NA,-21.35,-55.233332999999995,br,sao carlos,11,NA,-21.35,-55.233332999999995
Brazil,São Paulo,São José dos Campos,NA,NA,NA,NA,NA,NA,NA,NA,NA,NA,Letícia Silva,Prospective,br,sao jose dos campos,15,NA,-22.166667,-45.1,br,sao jose dos campos,15,NA,-22.166667,-45.1,br,sao jose dos campos,15,NA,-22.166667,-45.1
Brazil,São Paulo,São Paulo,https://www.meetup.com/rladies-sao-paulo/,https://twitter.com/RLadiesSaoPaulo,saopaulo@rladies.org,https://www.facebook.com/rladiessaopaulo/,https://www.instagram.com/rladiessaopaulo/,NA,NA,https://github.com/rladies/meetup-presentations_sao-paulo,NA,NA,"Haydée Svab,  Alissa Munerato, Bruna Wundervald, Beatriz Milz, Bruna Garbes, Nathália Demetrio",Active,ao,sao paulo,05,NA,-9.151022,14.509003,ao,sao paulo,05,NA,-9.151022,14.509003,ao,sao paulo,05,NA,-9.151022,14.509003
Brazil,Tocantins,Palmas,NA,NA,NA,NA,NA,NA,NA,NA,NA,NA,Katiuscia Martos,Prospective,ar,palmas,03,NA,-27.058490000000003,-58.693627,ar,palmas,03,NA,-27.058490000000003,-58.693627,ar,palmas,03,NA,-27.058490000000003,-58.693627
Bulgaria,NA,Sofia,NA,NA,NA,NA,NA,NA,NA,NA,NA,NA,Mimi Lazarova,Prospective,bg,sofia,42,1062065,42.6833333,23.3166667,bg,sofia,42,1062065,42.6833333,23.3166667,bg,sofia,42,1062065,42.6833333,23.3166667
Cameroon,NA,Yaounde,https://www.meetup.com/rladies-yaounde/,NA,yaounde@rladies.org,NA,NA,NA,NA,NA,NA,NA,Marie Therese Feujio,Active,NA,NA,NA,NA,NA,NA,NA,NA,NA,NA,NA,NA,NA,NA,NA,NA,NA,NA
Canada,Alberta,Calgary,https://www.meetup.com/rladies-calgary/,NA,NA,NA,NA,NA,NA,NA,NA,NA,"Marta Vidal García, Soane Mota dos Santos",Active,ca,calgary,01,968475,51.083333,-114.08333300000001,ca,calgary,01,968475,51.083333,-114.08333300000001,ca,calgary,01,968475,51.083333,-114.08333300000001
Canada,Alberta,Edmonton,NA,NA,edmonton@rladies.org,NA,NA,NA,NA,NA,NA,NA,Sarah Sheldon,Prospective,au,edmonton,04,NA,-17.016667,145.75,au,edmonton,04,NA,-17.016667,145.75,au,edmonton,04,NA,-17.016667,145.75
Canada,British Columbia,Vancouver,https://www.meetup.com/rladies-vancouver/,https://twitter.com/RLadiesVan,vancouver@rladies.org,NA,NA,NA,NA,https://github.com/rladies/meetup-presentations_vancouver,NA,NA,"Anna Posacka, Marion Shadbol, Nazlı Özüm Kafaee, Raïssa Philibert, Jasmine Lai, Lucia Darrow, Lisa Cao",Active,ca,vancouver,02,1837970,49.25,-123.13333300000001,ca,vancouver,02,1837970,49.25,-123.13333300000001,ca,vancouver,02,1837970,49.25,-123.13333300000001
Canada,British Columbia,Victoria,https://www.meetup.com/rladies-victoria/,https://twitter.com/RLadiesVicBC,victoriabc@rladies.org,NA,NA,NA,NA,https://github.com/RLadiesVicBC,NA,NA,Lisa McEwen,Retired on 29-09-2019,ar,victoria,01,NA,-34.453346999999994,-58.5371,ar,victoria,01,NA,-34.453346999999994,-58.5371,ar,victoria,01,NA,-34.453346999999994,-58.5371
Canada,Manitoba,Winnipeg,NA,NA,NA,NA,NA,NA,NA,NA,NA,NA,Sarah Mutch,Prospective,ca,winnipeg,03,632069,49.883333,-97.166667,ca,winnipeg,03,632069,49.883333,-97.166667,ca,winnipeg,03,632069,49.883333,-97.166667
Canada,Ontario,London,https://www.meetup.com/rladies-ldnont/,https://twitter.com/RLadiesLdnOnt,ldnont@rladies.org,https://www.facebook.com/rladiesldnont,NA,NA,NA,https://github.com/rladies/meetup-presentations_london_ontario,NA,NA,"Daryn Cushnie-Sparrow, Caitlin Coughler, Olivia Daub",Active,bz,london,04,NA,17.9833333,-88.4333333,bz,london,04,NA,17.9833333,-88.4333333,bz,london,04,NA,17.9833333,-88.4333333
Canada,Ontario,Ottawa,https://www.meetup.com/rladies-ottawa/,NA,ottawa@rladies.org,NA,NA,NA,NA,NA,NA,NA,"Michelle Fairbrother, Stephanie Houle",Active,ca,ottawa,08,874433,45.416667,-75.7,ca,ottawa,08,874433,45.416667,-75.7,ca,ottawa,08,874433,45.416667,-75.7
Canada,Ontario,Toronto,https://www.meetup.com/rladies-toronto/,https://twitter.com/rladiestoronto,toronto@rladies.org,NA,NA,NA,NA,https://github.com/rladies/meetup-presentations_toronto,NA,rladiestoronto.slack.com,"Sharla Gelfand, Monica Alexander, Nicole Radziwill",Active,au,toronto,02,NA,-33,151.6,au,toronto,02,NA,-33,151.6,au,toronto,02,NA,-33,151.6
Canada,Ontario,Waterloo,https://www.meetup.com/rladies-waterloo/,https://twitter.com/RLadiesWaterloo,waterloo@rladies.org,NA,NA,NA,NA,NA,NA,NA,Lauren Yee,Retired on 29-09-2019,au,waterloo,02,NA,-31.033333000000002,151.716667,au,waterloo,02,NA,-31.033333000000002,151.716667,au,waterloo,02,NA,-31.033333000000002,151.716667
Canada,Québec,Montréal,https://www.meetup.com/rladies-montreal/,https://twitter.com/RLadiesMTL,montreal@rladies.org,NA,NA,NA,NA,https://github.com/rladies/meetup-presentations_montreal,NA,NA,"Corinne Riddell, Kathryn Morrison",Active,NA,NA,NA,NA,NA,NA,NA,NA,NA,NA,NA,NA,NA,NA,NA,NA,NA,NA
Chile,NA,Concepción,https://www.meetup.com/rladies-conception/,NA,concepcion@rladies.org,NA,NA,NA,NA,NA,NA,NA,"Macarena Valenzuela Beltrán, Camila Molina",Active,NA,NA,NA,NA,NA,NA,NA,NA,NA,NA,NA,NA,NA,NA,NA,NA,NA,NA
Chile,Metropolitana,Santiago de Chile,https://www.meetup.com/rladies-scl/,https://twitter.com/RLadiesSantiago,santiago@rladies.org,https://www.facebook.com/RLadiesSantiago/,NA,NA,NA,https://github.com/rladies/meetup-presentations_santiago,NA,NA,"Gabriela Sandoval, Riva Quiroga",Active,NA,NA,NA,NA,NA,NA,NA,NA,NA,NA,NA,NA,NA,NA,NA,NA,NA,NA
Chile,Valparaíso,Valparaíso,https://www.meetup.com/rladies-valparaiso/,https://twitter.com/RLadiesValpo,valparaiso@rladies.org,https://www.facebook.com/RLadiesValpo/,NA,NA,NA,NA,NA,NA,"Riva Quiroga, Lissy Arce",Active,bo,valparaiso,06,NA,-10.9,-66.1,bo,valparaiso,06,NA,-10.9,-66.1,bo,valparaiso,06,NA,-10.9,-66.1
China,NA,Beijing,https://www.meetup.com/rladies-beijing/,NA,beijing@rladies.org,NA,NA,NA,NA,NA,NA,NA,"Xu Sabrina, Zuqun WANG, Hannah Rose Kirk, Clara WANG, Xiaolin LIU, Yujie GUO, Angelle LIU",Active,cn,beijing,03,NA,29.346443,116.198733,cn,beijing,03,NA,29.346443,116.198733,cn,beijing,03,NA,29.346443,116.198733
Colombia,NA,Bogotá,https://www.meetup.com/rladies-bogota/,https://twitter.com/RLadiesBogota,bogota@rladies.org,NA,NA,NA,NA,NA,NA,NA,Verónica Toro,Active,co,bogota,16,NA,3.03,-75.166667,co,bogota,16,NA,3.03,-75.166667,co,bogota,16,NA,3.03,-75.166667
Colombia,NA,Bucaramanga,NA,NA,NA,NA,NA,NA,NA,NA,NA,NA,Viviana Romero Alarcon,Prospective,co,bucaramanga,12,NA,8.788333,-76.035556,co,bucaramanga,12,NA,8.788333,-76.035556,co,bucaramanga,12,NA,8.788333,-76.035556
Colombia,NA,Manizales,NA,NA,NA,NA,NA,NA,NA,NA,NA,NA,Beatriz Mira,Prospective,co,manizales,02,NA,6.446667,-74.96722199999999,co,manizales,02,NA,6.446667,-74.96722199999999,co,manizales,02,NA,6.446667,-74.96722199999999
Colombia,NA,Medellin,https://www.meetup.com/rladies-medellin/,NA,medellin@rladies.org,NA,NA,NA,NA,NA,NA,NA,"Angie Correa, Valentina Clavijo, Sara Garcés, Olga Úsuga, Carmen Patiño",Active,ar,medellin,22,NA,-28.653377000000003,-63.787369999999996,ar,medellin,22,NA,-28.653377000000003,-63.787369999999996,ar,medellin,22,NA,-28.653377000000003,-63.787369999999996
Costa Rica,NA,San José,https://www.meetup.com/rladies-san-jose/,https://twitter.com/RLadiesCR,sanjoseCR@rladies.org,https://www.facebook.com/R-Ladies-San-Jos%C3%A9-CR-113831192660935,NA,NA,NA,https://github.com/rladies/meetup-presentations_sanjose,NA,NA,"Marcela Alfaro-Córdoba, Fabiola Salazar, Jimena Ruiz, Andrea Vargas, Daniely Hernández, María Paula Mesen, Paula Rodríguez",Active,an,san jose,00,NA,12.116666699999998,-68.2333333,an,san jose,00,NA,12.116666699999998,-68.2333333,an,san jose,00,NA,12.116666699999998,-68.2333333
Croatia,NA,Zagreb,NA,NA,NA,NA,NA,NA,NA,NA,NA,NA,"Ana Jankovic, Maja Kuzman",Prospective,ba,zagreb,01,NA,44.7008333,16.6844444,ba,zagreb,01,NA,44.7008333,16.6844444,ba,zagreb,01,NA,44.7008333,16.6844444
Denmark,NA,Aarhus,NA,NA,NA,NA,NA,NA,NA,NA,NA,NA,"Belén Jiménez, Sara Tomiolo",Prospective,dk,aarhus,18,NA,56.153423,10.225530000000001,dk,aarhus,18,NA,56.153423,10.225530000000001,dk,aarhus,18,NA,56.153423,10.225530000000001
Denmark,NA,Copenhagen,https://www.meetup.com/rladies-copenhagen/,https://twitter.com/RLadiesCPH,copenhagen@rladies.org,NA,NA,NA,NA,NA,NA,NA,"Kristina Gregorio, Diana Lucatero",Active,dk,copenhagen,17,1089958,55.666667000000004,12.583333,dk,copenhagen,17,1089958,55.666667000000004,12.583333,dk,copenhagen,17,1089958,55.666667000000004,12.583333
Dominican Republic,NA,Santo Domingo,NA,NA,NA,NA,NA,NA,NA,NA,NA,NA,Lissette Rodriguez,Prospective,ar,santo domingo,01,NA,-36.710136999999996,-57.585696,ar,santo domingo,01,NA,-36.710136999999996,-57.585696,ar,santo domingo,01,NA,-36.710136999999996,-57.585696
Ecuador,NA,Puerto Ayora,https://www.meetup.com/rladies-galapagos-islands/,https://twitter.com/RLadiesGps,galapagos@rladies.org,NA,NA,NA,NA,https://github.com/rladies/meetup-presentations_galapagos-islands,NA,NA,Denisse Fierro Arcos,Active,ec,puerto ayora,01,8996,-0.75,-90.3166667,ec,puerto ayora,01,8996,-0.75,-90.3166667,ec,puerto ayora,01,8996,-0.75,-90.3166667
Ecuador,NA,Guayaquil,https://www.meetup.com/rladies-guayaquil/,https://twitter.com/RLadiesGye,guayaquil@rladies.org,NA,NA,NA,NA,https://github.com/rladies/meetup-presentations_guayaquil,NA,NA,"Zulemma Bazurto, Diana Minda",Active,co,guayaquil,02,NA,6.25,-75.583333,co,guayaquil,02,NA,6.25,-75.583333,co,guayaquil,02,NA,6.25,-75.583333
Ecuador,NA,Quito,https://www.meetup.com/rladies_quito/,https://twitter.com/RLadiesQuito,quito@rladies.org,NA,NA,NA,NA,https://github.com/rladies/meetup-presentations_quito,NA,https://rladies-quito.slack.com/,"Elena Chicaiza, Carolina Cañizares, Rosi Bolaños",Active,ao,quito,15,NA,-6.383333,15.3,ao,quito,15,NA,-6.383333,15.3,ao,quito,15,NA,-6.383333,15.3
Estonia,NA,Tallinn,NA,NA,NA,NA,NA,NA,NA,NA,NA,NA,Merilin Paas,Prospective,ee,tallinn,01,394023,59.4338889,24.7280556,ee,tallinn,01,394023,59.4338889,24.7280556,ee,tallinn,01,394023,59.4338889,24.7280556
Ethiopia,NA,Addis Ababa,https://www.meetup.com/rladies-addis-ababa/,https://twitter.com/RLadiesAddis,addisababa@rladies.org,NA,NA,NA,NA,NA,https://r-ladies-addis.github.io/rladies-addis/,NA,Margareth Gfrerer,Active,et,addis ababa,44,NA,9.024325,38.749226,et,addis ababa,44,NA,9.024325,38.749226,et,addis ababa,44,NA,9.024325,38.749226
Ethiopia,NA,Wolkite,NA,NA,NA,NA,NA,NA,NA,NA,NA,NA,Mekdes Dessie Assena,Prospective,et,wolkite,54,NA,8.283333,37.783333,et,wolkite,54,NA,8.283333,37.783333,et,wolkite,54,NA,8.283333,37.783333
Finland,NA,Helsinki,https://www.meetup.com/rladies-helsinki/,https://twitter.com/RLadiesHelsinki,helsinki@rladies.org,NA,NA,NA,NA,https://github.com/rladies/meetup-presentations_helsinki,NA,NA,"Suvi Vasama, Eija-Leena Koponen",Active,fi,helsinki,13,558457,60.17555600000001,24.934167000000002,fi,helsinki,13,558457,60.17555600000001,24.934167000000002,fi,helsinki,13,558457,60.17555600000001,24.934167000000002
France,NA,Lyon,https://www.meetup.com/rladies-lyon/,https://twitter.com/RLadiesLyon,lyon@rladies.org,NA,NA,NA,NA,https://github.com/rladies/meetup-presentations_lyon,NA,NA,"Shama Virani, Hannah Lennon, Citadel Cabasag, Nada Assi, Florence Guida",Active,ag,lyon,06,NA,17.05,-61.7333333,ag,lyon,06,NA,17.05,-61.7333333,ag,lyon,06,NA,17.05,-61.7333333
France,NA,Montpellier,https://www.meetup.com/rladies-montpellier/,https://twitter.com/RLadiesMontpel,montpellier@rladies.org,NA,NA,NA,NA,NA,NA,NA,"Cécile Sauder, Criscely Luján",Active,fr,montpellier,A9,238887,43.61092,3.8772300000000004,fr,montpellier,A9,238887,43.61092,3.8772300000000004,fr,montpellier,A9,238887,43.61092,3.8772300000000004
France,NA,Paris,https://www.meetup.com/rladies-paris/,https://twitter.com/RLadiesParis,paris@rladies.org,https://www.facebook.com/groups/1771828013098557/,NA,NA,NA,https://github.com/rladies-paris/,NA,NA,"Diane Beldame, Christina Bergmann, Sarah Hosking, Stéphanie Terrasse",Active,NA,NA,NA,NA,NA,NA,NA,NA,NA,NA,NA,NA,NA,NA,NA,NA,NA,NA
France,NA,Strasbourg,https://www.meetup.com/rladies-strasbourg/,https://twitter.com/RLadiesStras,strasbourg@rladies.org,NA,NA,NA,NA,https://github.com/rladies/meetup-presentations_strasbourg,NA,NA,Rita Giordano,Active,be,strasbourg,07,NA,50.25,5.383333,be,strasbourg,07,NA,50.25,5.383333,be,strasbourg,07,NA,50.25,5.383333
Georgia,NA,Tbilisi,https://www.meetup.com/rladies-tbilisi/,https://twitter.com/RLadiesTbilisi,tbilisi@rladies.org,https://www.facebook.com/rladiestbilisi,NA,NA,NA,https://github.com/rladies/meetup-presentations_tbilisi,NA,NA,"Liili Abuladze, Tamuna Margievi, Mariam Asatiani",Active,ge,tbilisi,19,1049516,41.725,44.790833299999996,ge,tbilisi,19,1049516,41.725,44.790833299999996,ge,tbilisi,19,1049516,41.725,44.790833299999996
Germany,NA,Berlin,https://www.meetup.com/rladies-berlin/,https://twitter.com/RLadiesBerlin,berlin@rladies.org,https://www.facebook.com/RLadiesBerlin,NA,NA,NA,https://github.com/rladies/meetup-presentations_berlin,NA,https://rstats-germany.slack.com/,"Christin Zasada, Noa Tamir, Hannah Tillmann",Active,NA,NA,NA,NA,NA,NA,NA,NA,NA,NA,NA,NA,NA,NA,NA,NA,NA,NA
Germany,Hessen,Frankfurt,https://www.meetup.com/rladies-frankfurt/,https://twitter.com/RLadiesFRA,frankfurt@rladies.org,NA,NA,NA,NA,https://github.com/rladies/meetup-presentations_frankfurt,NA,NA,"Sandra Pintor, Myriam Traub, Lara Vivian, Natalie Filmann",Active,de,frankfurt,02,NA,49.683333000000005,10.533333,de,frankfurt,02,NA,49.683333000000005,10.533333,de,frankfurt,02,NA,49.683333000000005,10.533333
Germany,NA,Freiburg,https://www.meetup.com/rladies-freiburg/,https://twitter.com/RLadiesFreiburg,freiburg@rladies.org,NA,NA,NA,NA,https://github.com/rladies/meetup-presentations_freiburg,NA,NA,"Divya Seernani, Elisa Schneider",Active,ch,freiburg,06,NA,46.79572,7.154748,ch,freiburg,06,NA,46.79572,7.154748,ch,freiburg,06,NA,46.79572,7.154748
Germany,NA,Goettingen,NA,https://twitter.com/RLadiesGoe,goettingen@rladies.org,NA,NA,NA,NA,NA,NA,NA,"Annika Ziereis, Lena Ackermann, Friederike Schütte, Lara Schleifenbaum",Prospective,NA,NA,NA,NA,NA,NA,NA,NA,NA,NA,NA,NA,NA,NA,NA,NA,NA,NA
Germany,NA,Heidelberg,NA,NA,NA,NA,NA,NA,NA,NA,NA,NA,Anna Stepanova,Prospective,au,heidelberg,07,NA,-37.75,145.066667,au,heidelberg,07,NA,-37.75,145.066667,au,heidelberg,07,NA,-37.75,145.066667
Germany,NA,Leipzig,NA,NA,NA,NA,NA,NA,NA,NA,NA,NA,Deisy Gysi,Prospective,de,leipzig,13,492637,51.3,12.333333,de,leipzig,13,492637,51.3,12.333333,de,leipzig,13,492637,51.3,12.333333
Germany,NA,Marburg,NA,NA,NA,NA,NA,NA,NA,NA,NA,NA,Glenda Mendieta,Prospective,au,marburg,04,NA,-27.566090000000003,152.597046,au,marburg,04,NA,-27.566090000000003,152.597046,au,marburg,04,NA,-27.566090000000003,152.597046
Germany,NA,Munich,https://www.meetup.com/rladies-munich/,https://twitter.com/RLadiesMunich,munich@rladies.org,https://www.facebook.com/RLadiesMunich/,NA,NA,NA,https://github.com/rladies/meetup-presentations_munich,NA,NA,"Daloha Rodriguez-Molina, Pamela Raquel Matias Garcia, Dan Huang, Choi Wai Maggie Chak",Active,de,munich,02,1246133,48.15,11.5833,de,munich,02,1246133,48.15,11.5833,de,munich,02,1246133,48.15,11.5833
Germany,NA,Münster,NA,NA,NA,NA,NA,NA,NA,NA,NA,NA,"Iris Morgenstern, Thi Sam To",Prospective,NA,NA,NA,NA,NA,NA,NA,NA,NA,NA,NA,NA,NA,NA,NA,NA,NA,NA
Germany,NA,Stuttgart,NA,NA,NA,NA,NA,NA,NA,NA,NA,NA,Paula Gonzalez,Prospective,de,stuttgart,01,591688,48.766667,9.183333,de,stuttgart,01,591688,48.766667,9.183333,de,stuttgart,01,591688,48.766667,9.183333
Greece,NA,Athens,NA,NA,NA,NA,NA,NA,NA,NA,NA,NA,Evangelia Balatsou,Prospective,gr,athens,35,729139,37.9833333,23.7333333,gr,athens,35,729139,37.9833333,23.7333333,gr,athens,35,729139,37.9833333,23.7333333
Hong Kong,NA,Hong Kong,https://www.meetup.com/rladies-hong-kong/,NA,hongkong@rladies.org,NA,NA,NA,NA,NA,NA,NA,Gabriela Mourão,Retired on 29-09-2019,hk,hong kong,00,NA,22.283333300000002,114.15,hk,hong kong,00,NA,22.283333300000002,114.15,hk,hong kong,00,NA,22.283333300000002,114.15
Hungary,NA,Budapest,https://www.meetup.com/rladies-budapest/,https://twitter.com/RLadiesBudapest,budapest@rladies.org,https://www.facebook.com/RLadiesBudapest/,NA,NA,NA,https://github.com/rladies/meetup-presentations_budapest,NA,NA,"Ágnes Salánki, Eszter Windhager-Pokol, Zsuzsanna Szabó, Rita Klein, Berta Böjte, Gerda Lukácsné Szabó",Active,hu,budapest,05,1708088,47.5,19.083333,hu,budapest,05,1708088,47.5,19.083333,hu,budapest,05,1708088,47.5,19.083333
India,Delhi,New Delhi,https://www.meetup.com/rladies-new-delhi/,https://twitter.com/newdelhirladies,newdelhi@rladies.org,https://www.facebook.com/RLadies-Delhi-111066293606859,NA,NA,NA,NA,NA,NA,"Anukriti Gupta, Riya Gupta",Active,in,new delhi,07,10928270,28.6,77.2,in,new delhi,07,10928270,28.6,77.2,in,new delhi,07,10928270,28.6,77.2
India,Karnataka,B G Nagar,NA,NA,NA,NA,NA,NA,NA,NA,NA,NA,Divya Gowda,Prospective,NA,NA,NA,NA,NA,NA,NA,NA,NA,NA,NA,NA,NA,NA,NA,NA,NA,NA
India,Karnataka,Bangalore,NA,NA,NA,NA,NA,NA,NA,NA,NA,NA,"Aparna Bindu, Muthumari S, Diksha Chawla, Pragati Parikh, Smruthi R, Shefali Lokesh, Radha Subramanian, Dincy Mariyam",Prospective,in,bangalore,19,4931603,12.983333,77.583333,in,bangalore,19,4931603,12.983333,77.583333,in,bangalore,19,4931603,12.983333,77.583333
India,Maharashtra,Mumbai,https://www.meetup.com/rladies-mumbai,NA,mumbai@rladies.org,NA,NA,NA,NA,NA,NA,NA,"Heena Bhagat, Manasi Mahadik",Active,in,mumbai,16,NA,18.975,72.82583299999999,in,mumbai,16,NA,18.975,72.82583299999999,in,mumbai,16,NA,18.975,72.82583299999999
India,Maharashtra,Pune,https://www.meetup.com/rladies-pune/,https://twitter.com/RladiesPune,pune@rladies.org,NA,NA,NA,NA,https://github.com/rladies/meetup-presentations_pune,NA,NA,"Disha Patil, Saranjeet Kaur",Active,br,pune,16,NA,1.9666669999999997,-54.916667000000004,br,pune,16,NA,1.9666669999999997,-54.916667000000004,br,pune,16,NA,1.9666669999999997,-54.916667000000004
India,Tamil Nadu,Chennai,https://www.meetup.com/rladies-chennai/,https://twitter.com/RLadiesChennai,chennai@rladies.org,NA,NA,NA,NA,https://github.com/rladies/meetup-presentations_chennai,NA,NA,Praveena Mathews,Active,in,chennai,25,NA,13.083333,80.283333,in,chennai,25,NA,13.083333,80.283333,in,chennai,25,NA,13.083333,80.283333
India,Tamil Nadu,Tiruchirappalli,https://www.meetup.com/rladies-tiruchirappalli/,https://twitter.com/RLadiesTrichy,trichy@rladies.org,NA,NA,NA,NA,NA,NA,NA,Janani Selvaraj,Active,in,tiruchirappalli,25,NA,10.805,78.685556,in,tiruchirappalli,25,NA,10.805,78.685556,in,tiruchirappalli,25,NA,10.805,78.685556
India,Telangana,Hyderabad,NA,NA,NA,NA,NA,NA,NA,NA,NA,NA,"Varnitha Kurli Reddy, Radhika Garimella",Prospective,in,hyderabad,02,3598199,17.375278,78.47444399999999,in,hyderabad,02,3598199,17.375278,78.47444399999999,in,hyderabad,02,3598199,17.375278,78.47444399999999
India,West Bengal,Kolkata,NA,NA,NA,NA,NA,NA,NA,NA,NA,NA,A. Mani,Prospective,in,kolkata,28,NA,22.569722,88.369722,in,kolkata,28,NA,22.569722,88.369722,in,kolkata,28,NA,22.569722,88.369722
Indonesia,NA,Bogor,https://www.meetup.com/rladies-bogor/,NA,bogor@rladies.org,NA,NA,NA,NA,NA,NA,NA,"Sabhrina Aninta, Sheherazade, Ulfah Mardhiah",Active,id,bogor,07,NA,-6.8701,109.5954,id,bogor,07,NA,-6.8701,109.5954,id,bogor,07,NA,-6.8701,109.5954
Indonesia,NA,Jakarta,https://www.meetup.com/rladies-jakarta/,NA,jakarta@rladies.org,NA,NA,NA,NA,https://github.com/rladies/meetup-presentations_jakarta,NA,NA,Erika Siregar,Active,id,jakarta,04,8540306,-6.174444,106.829444,id,jakarta,04,8540306,-6.174444,106.829444,id,jakarta,04,8540306,-6.174444,106.829444
Ireland,NA,Dublin,https://www.meetup.com/rladies-dublin/,https://twitter.com/RLadiesDublin,dublin@rladies.org,NA,NA,NA,NA,https://github.com/rladies/meetup-presentations_dublin,NA,NA,Jo Nie_,Active,au,dublin,05,NA,-34.45,138.35,au,dublin,05,NA,-34.45,138.35,au,dublin,05,NA,-34.45,138.35
Israel,NA,Tel Aviv,NA,NA,NA,NA,NA,NA,NA,NA,NA,NA,Ayala Allon,Prospective,il,tel aviv,05,NA,32.066666999999995,34.766667,il,tel aviv,05,NA,32.066666999999995,34.766667,il,tel aviv,05,NA,32.066666999999995,34.766667
Italy,NA,Bari,https://www.meetup.com/rladies-bari/,https://twitter.com/RladiesBari,bari@rladies.org,https://www.facebook.com/rladiesbari/,NA,NA,NA,https://github.com/rladies/meetup-presentations_bari,NA,NA,"Giovanna de Vincenzo, Francesca Lamontanara",Active,af,bari,18,NA,34.035244,70.629364,af,bari,18,NA,34.035244,70.629364,af,bari,18,NA,34.035244,70.629364
Italy,NA,Bolzano,NA,NA,NA,NA,NA,NA,NA,NA,NA,NA,Damia Noce,Prospective,it,bolzano,06,NA,45.971389,13.390832999999999,it,bolzano,06,NA,45.971389,13.390832999999999,it,bolzano,06,NA,45.971389,13.390832999999999
Italy,NA,Milan,https://www.meetup.com/rladies-milan/,https://twitter.com/RLadiesMilan,milan@rladies.org,NA,NA,NA,NA,https://github.com/rladies/meetup-presentations_milan,NA,NA,Parvaneh Shafiei,Active,af,milan,36,NA,33.609241,69.322934,af,milan,36,NA,33.609241,69.322934,af,milan,36,NA,33.609241,69.322934
Italy,NA,Palermo,NA,NA,NA,NA,NA,NA,NA,NA,NA,NA,Micaela Arcaio,Prospective,ar,palermo,07,NA,-34.585032,-58.420094999999996,ar,palermo,07,NA,-34.585032,-58.420094999999996,ar,palermo,07,NA,-34.585032,-58.420094999999996
Italy,NA,Pisa,NA,NA,NA,NA,NA,NA,NA,NA,NA,NA,Nicoletta Simi,Prospective,co,pisa,27,NA,8.667194,-74.705403,co,pisa,27,NA,8.667194,-74.705403,co,pisa,27,NA,8.667194,-74.705403
Italy,NA,Trento,NA,NA,NA,NA,NA,NA,NA,NA,NA,NA,Teresa Del Bianco,Prospective,it,trento,17,106703,46.066666999999995,11.133333,it,trento,17,106703,46.066666999999995,11.133333,it,trento,17,106703,46.066666999999995,11.133333
Italy,NA,Trieste,NA,NA,NA,NA,NA,NA,NA,NA,NA,NA,Jana Hasenäcker,Prospective,co,trieste,26,NA,7.033333,-73.716667,co,trieste,26,NA,7.033333,-73.716667,co,trieste,26,NA,7.033333,-73.716667
Japan,NA,Okinawa,NA,NA,NA,NA,NA,NA,NA,NA,NA,NA,Margaret Mars Brisbin,Prospective,jp,okinawa,47,125485,26.335833,127.80138899999999,jp,okinawa,47,125485,26.335833,127.80138899999999,jp,okinawa,47,125485,26.335833,127.80138899999999
Kenya,NA,Nairobi,NA,NA,NA,NA,NA,NA,NA,NA,NA,NA,"Muthoni Wanyoike, Shelmith Kariuki, Carolyne Adhiambo Ogutu",Prospective,ke,nairobi,05,2750561,-1.2833333,36.8166667,ke,nairobi,05,2750561,-1.2833333,36.8166667,ke,nairobi,05,2750561,-1.2833333,36.8166667
Kenya,NA,Nakuru,NA,NA,NA,NA,NA,NA,NA,NA,NA,NA,Immaculate Kathomi,Prospective,ke,nakuru,08,259934,-0.2833333,36.0666667,ke,nakuru,08,259934,-0.2833333,36.0666667,ke,nakuru,08,259934,-0.2833333,36.0666667
Lebanon,NA,Beirut,NA,https://twitter.com/RLadiesBEY,beirut@rladies.org,NA,NA,NA,NA,NA,NA,NA,Sondos Atwi,Prospective,lb,beirut,04,1252010,33.8719444,35.5097222,lb,beirut,04,1252010,33.8719444,35.5097222,lb,beirut,04,1252010,33.8719444,35.5097222
Luxembourg,NA,Luxembourg,NA,NA,NA,NA,NA,NA,NA,NA,NA,NA,"Claudia Albanese, Irma Karabegovic",Prospective,lu,luxembourg,03,NA,49.6116667,6.13,lu,luxembourg,03,NA,49.6116667,6.13,lu,luxembourg,03,NA,49.6116667,6.13
Malaysia,NA,Kuala Lumpur,NA,NA,NA,NA,NA,NA,NA,NA,NA,NA,Anuradha Yerukola,Prospective,my,kuala lumpur,14,1453978,3.166667,101.7,my,kuala lumpur,14,1453978,3.166667,101.7,my,kuala lumpur,14,1453978,3.166667,101.7
Mexico,NA,Aguascalientes,https://www.meetup.com/rladies-aguascalientes/,NA,aguascalientes@rladies.org,NA,NA,NA,NA,NA,NA,NA,"Regina Isabel Medina, Yadira Peralta",Active,mx,aguascalientes,01,658193,21.883333,-102.3,mx,aguascalientes,01,658193,21.883333,-102.3,mx,aguascalientes,01,658193,21.883333,-102.3
Mexico,NA,Cuernavaca,https://www.meetup.com/rladies-cuernavaca/,NA,cuernavaca@rladies.org,NA,NA,NA,NA,NA,NA,NA,Joselyn Chavez,Active,co,cuernavaca,19,NA,4.110444,-72.858903,co,cuernavaca,19,NA,4.110444,-72.858903,co,cuernavaca,19,NA,4.110444,-72.858903
Mexico,NA,Mexico City,https://www.meetup.com/rladies-cdmx/,https://twitter.com/RLadiesCDMX,cdmx@rladies.org,https://www.facebook.com/rladiescdmx,NA,NA,NA,https://github.com/rladies/meetup-presentations_CDMX,NA,rladiescdmx.slack.com,"Silvia Eunice Gutiérrez de la Torre, Maria Ortiz, Mariana Carmona, Mariana Godina",Active,NA,NA,NA,NA,NA,NA,NA,NA,NA,NA,NA,NA,NA,NA,NA,NA,NA,NA
Mexico,NA,Monterrey,https://www.meetup.com/rladies-monterrey/,NA,monterrey@rladies.org,NA,NA,NA,NA,NA,NA,NA,"Juana Martinez, Verenice Amante",Active,cl,monterrey,06,NA,-37.266667,-72.75,cl,monterrey,06,NA,-37.266667,-72.75,cl,monterrey,06,NA,-37.266667,-72.75
Mexico,NA,Morelia,NA,NA,NA,NA,NA,NA,NA,NA,NA,NA,Irais Avila Eulogio. Thomai Tsiftsi,Prospective,co,morelia,01,NA,-1.166667,-72.033333,co,morelia,01,NA,-1.166667,-72.033333,co,morelia,01,NA,-1.166667,-72.033333
Mexico,NA,Pachuca,https://www.meetup.com/rladies-pachuca/,https://twitter.com/RLadiesPachuca,pachuca@rladies.org,NA,NA,NA,NA,NA,NA,NA,Yesenia Jasso Arreola,Active,mx,pachuca,13,319593,20.116667,-98.733333,mx,pachuca,13,319593,20.116667,-98.733333,mx,pachuca,13,319593,20.116667,-98.733333
Mexico,NA,Puebla,https://www.meetup.com/rladies-puebla/,NA,puebla@rladies.org,NA,NA,NA,NA,https://github.com/rladies/meetup-presentations_puebla,NA,NA,Averi Giudicessi,Active,es,puebla,07,NA,39.768240000000006,3.024598,es,puebla,07,NA,39.768240000000006,3.024598,es,puebla,07,NA,39.768240000000006,3.024598
Mexico,NA,Queretaro,https://www.meetup.com/rladies-queretaro/,https://twitter.com/RLadies_Qro,qro@rladies.org,NA,NA,https://www.pscp.tv/RLadies_Qro/,NA,https://github.com/RladiesQro,NA,r-ladiesqro.slack.com,"Driselda Patricia Sánchez Aguirre, Ana Betty Villaseñor, Azalea Reyes Aguilar",Active,NA,NA,NA,NA,NA,NA,NA,NA,NA,NA,NA,NA,NA,NA,NA,NA,NA,NA
Mexico,NA,Xalapa,https://www.meetup.com/rladies-xalapa/,https://twitter.com/RLadiesXalapa,xalapa@rladies.org,NA,NA,NA,NA,NA,NA,NA,Marcela Dolores Guerra Osorno,Active,mx,xalapa,30,425166,19.533333,-96.916667,mx,xalapa,30,425166,19.533333,-96.916667,mx,xalapa,30,425166,19.533333,-96.916667
Montenegro,NA,Herceg Novi,https://www.meetup.com/rladies-montenegro/,https://twitter.com/RLadiesMNE,montenegro@rladies.org,NA,NA,NA,NA,https://github.com/rladies/meetup-presentations_montenegro,NA,NA,Ivana Kecojevic,Active,NA,NA,NA,NA,NA,NA,NA,NA,NA,NA,NA,NA,NA,NA,NA,NA,NA,NA
Montenegro,NA,Podgorica,https://www.meetup.com/rladies-podgorica/,NA,podgorica@rladies.org,NA,NA,NA,NA,NA,NA,NA,Elma Dervic,Active,ba,podgorica,01,NA,44.5783333,16.2063889,ba,podgorica,01,NA,44.5783333,16.2063889,ba,podgorica,01,NA,44.5783333,16.2063889
Morocco,NA,Rabat,https://www.meetup.com/rladies-rabat/,https://twitter.com/RLadiesRabat,rabat@rladies.org,NA,NA,NA,NA,NA,NA,NA,Abir Alaoui,Active,af,rabat,01,NA,36.034653000000006,70.792856,af,rabat,01,NA,36.034653000000006,70.792856,af,rabat,01,NA,36.034653000000006,70.792856
Nepal,NA,Kathmandu,https://www.meetup.com/rladies-kathmandu,https://twitter.com/RLadiesKtm,kathmandu@rladies.org,NA,NA,NA,NA,NA,NA,NA,"Prakriti Dhungana, Anupama Bishwokarma",Active,np,kathmandu,00,790612,27.7166667,85.3166667,np,kathmandu,00,790612,27.7166667,85.3166667,np,kathmandu,00,790612,27.7166667,85.3166667
Netherlands,NA,Almere,NA,NA,NA,NA,NA,NA,NA,NA,NA,NA,Victoria Lopez,Prospective,nl,almere,16,186457,52.388101,5.235395,nl,almere,16,186457,52.388101,5.235395,nl,almere,16,186457,52.388101,5.235395
Netherlands,NA,Amsterdam,https://www.meetup.com/rladies-amsterdam/,https://twitter.com/RLadiesAMS,amsterdam@rladies.org,NA,NA,NA,NA,NA,NA,NA,"Tess Korthout, Janine Khuc, Iris de Vries",Active,co,amsterdam,33,NA,4.977825,-73.90324100000001,co,amsterdam,33,NA,4.977825,-73.90324100000001,co,amsterdam,33,NA,4.977825,-73.90324100000001
Netherlands,NA,Den Bosch,https://www.meetup.com/rladies-den-bosch/,NA,denbosch@rladies.org,NA,NA,NA,NA,NA,NA,NA,"Veerle van Son, Luana Gomes Sousa",Active,nl,den bosch,06,NA,51.585691,6.020055999999999,nl,den bosch,06,NA,51.585691,6.020055999999999,nl,den bosch,06,NA,51.585691,6.020055999999999
Netherlands,NA,Groningen,NA,NA,NA,NA,NA,NA,NA,NA,NA,NA,Suzanne Dekker,Prospective,NA,NA,NA,NA,NA,NA,NA,NA,NA,NA,NA,NA,NA,NA,NA,NA,NA,NA
Netherlands,NA,Leiden,NA,NA,NA,NA,NA,NA,NA,NA,NA,NA,Vera Arntzen,Prospective,nl,leiden,11,116928,52.176281,4.528154,nl,leiden,11,116928,52.176281,4.528154,nl,leiden,11,116928,52.176281,4.528154
Netherlands,NA,Nijmegen,https://www.meetup.com/rladies-nijmegen/,https://twitter.com/RladiesNijmegen,nijmegen@rladies.org,NA,NA,NA,NA,NA,NA,NA,"Sara Iacozza, Eirini Zormpa",Active,nl,nijmegen,03,158707,51.833333,5.866667,nl,nijmegen,03,158707,51.833333,5.866667,nl,nijmegen,03,158707,51.833333,5.866667
Netherlands,NA,Rotterdam,https://www.meetup.com/rladies-rotterdam/,https://twitter.com/RladiesRdam,rotterdam@rladies.org,https://www.facebook.com/RLadiesRott/,NA,NA,NA,https://github.com/rladies/meetup-presentations_rotterdam,NA,NA,"Paloma Rojas, Elena He, Yalda Mohammadian, Mădălina Naghi",Active,nl,rotterdam,11,603851,51.916667,4.5,nl,rotterdam,11,603851,51.916667,4.5,nl,rotterdam,11,603851,51.916667,4.5
Netherlands,NA,Twente,NA,NA,NA,NA,NA,NA,NA,NA,NA,NA,Karin Groothuis-Oudshoorn,Prospective,NA,NA,NA,NA,NA,NA,NA,NA,NA,NA,NA,NA,NA,NA,NA,NA,NA,NA
Netherlands,NA,Utrecht,https://www.meetup.com/rladies-utrecht/,NA,NA,NA,NA,NA,NA,https://github.com/rladies/meetup-presentations_utrecht,NA,NA,"Annelies Kers, Dewi Koning",Active,nl,utrecht,09,267044,52.093813,5.119095,nl,utrecht,09,267044,52.093813,5.119095,nl,utrecht,09,267044,52.093813,5.119095
Netherlands,NA,Wageningen,https://www.meetup.com/rladies-wageningen/,https://twitter.com/RLadiesWage,wageningen@rladies.org,NA,NA,NA,NA,NA,NA,NA,Veronika Laine,Active,nl,wageningen,03,35080,51.973279,5.667555999999999,nl,wageningen,03,35080,51.973279,5.667555999999999,nl,wageningen,03,35080,51.973279,5.667555999999999
New Zealand,NA,Auckland,https://www.meetup.com/rladies-auckland/,https://twitter.com/RLadiesAKL,auckland@rladies.org,NA,NA,NA,NA,https://github.com/rladies/meetup-presentations_auckland,NA,NA,"Kim Fitter, Anna Martin Fergusson, Anjali Gupta",Active,nz,auckland,E7,417910,-36.866667,174.76666699999998,nz,auckland,E7,417910,-36.866667,174.76666699999998,nz,auckland,E7,417910,-36.866667,174.76666699999998
New Zealand,NA,Christchurch,https://www.meetup.com/rladies-christchurch/,NA,chch@rladies.org,NA,NA,NA,NA,NA,NA,NA,Vica Papp,Active,gb,christchurch,D6,42397,50.733333,-1.7666669999999998,gb,christchurch,D6,42397,50.733333,-1.7666669999999998,gb,christchurch,D6,42397,50.733333,-1.7666669999999998
New Zealand,NA,Nelson,https://www.meetup.com/rladies-nelson/,NA,nelson@rladies.org,NA,NA,NA,NA,NA,NA,NA,Dana Briscoe,Active,ar,nelson,21,NA,-31.26738,-60.762795999999994,ar,nelson,21,NA,-31.26738,-60.762795999999994,ar,nelson,21,NA,-31.26738,-60.762795999999994
Nigeria,NA,Abuja,https://www.meetup.com/rladies-abuja/,NA,NA,NA,NA,NA,NA,https://github.com/rladies/meetup-presentations_abuja,NA,NA,Bilikisu Wunmi Aderinto,Active,ng,abuja,11,NA,9.083333,7.533333,ng,abuja,11,NA,9.083333,7.533333,ng,abuja,11,NA,9.083333,7.533333
Nigeria,NA,Ilorin,NA,NA,NA,NA,NA,NA,NA,NA,NA,NA,Waliyat Olaide Oloyede,Prospective,ng,ilorin,30,814246,8.5,4.55,ng,ilorin,30,814246,8.5,4.55,ng,ilorin,30,814246,8.5,4.55
Nigeria,NA,Lagos,https://www.meetup.com/rladies-lagos/,NA,lagos@rladies.org,NA,NA,NA,NA,NA,NA,NA,Alimi Eyitayo,Active,ao,lagos,07,NA,-16.05,16.583333,ao,lagos,07,NA,-16.05,16.583333,ao,lagos,07,NA,-16.05,16.583333
Norway,NA,Bergen,https://www.meetup.com/rladies-bergen,NA,bergen@rladies.org,NA,NA,NA,NA,https://github.com/rladies/meetup-presentations_bergen,NA,NA,"Jonelle Dickow Villar, Julia Romanowska, Astrid Lunde",Active,at,bergen,03,NA,48.916667,15.133332999999999,at,bergen,03,NA,48.916667,15.133332999999999,at,bergen,03,NA,48.916667,15.133332999999999
Norway,NA,Oslo,https://www.meetup.com/rladies-oslo/,https://twitter.com/RLadies_Oslo,oslo@rladies.org,NA,NA,NA,NA,https://github.com/rladies/meetup-presentations_oslo,NA,NA,"Anne Claire Fouilloux, Athanasia Monika Mowinckel, Lene Norderhaug Drosdal, Aurora Voje, Isabelle Valette",Active,no,oslo,12,808690,59.916667000000004,10.75,no,oslo,12,808690,59.916667000000004,10.75,no,oslo,12,808690,59.916667000000004,10.75
Oman,NA,Masqat,https://www.meetup.com/rladies-masqat,NA,masqat@rladies.org,NA,NA,NA,NA,NA,NA,NA,Noora Said,Active,om,masqat,06,NA,23.6133333,58.5933333,om,masqat,06,NA,23.6133333,58.5933333,om,masqat,06,NA,23.6133333,58.5933333
Paraguay,NA,Asunción,NA,NA,asuncion@rladies.org,NA,NA,NA,NA,NA,NA,NA,Flavia Sacco,Prospective,bo,asuncion,02,NA,-16.8833333,-65.1166667,bo,asuncion,02,NA,-16.8833333,-65.1166667,bo,asuncion,02,NA,-16.8833333,-65.1166667
Peru,NA,Lima,https://www.meetup.com/rladies-lima/,https://twitter.com/RLadiesLima,lima@rladies.org,https://www.facebook.com/RLadiesLima,NA,NA,NA,https://github.com/rladies/meetup-presentations_lima,NA,r-ladieslima.slack.com,"Ivonne Rentería, Vilma Romero, Evelyn Gutierrez, Yuriko Sosa, Sherly Tarazona, Luisa Quispe",Active,ao,lima,12,NA,-9.292502,16.171227,ao,lima,12,NA,-9.292502,16.171227,ao,lima,12,NA,-9.292502,16.171227
Philippines,NA,Manila,NA,NA,NA,NA,NA,NA,NA,NA,NA,NA,Ma. Regina Justina E. Estuar,Prospective,co,manila,32,NA,5.23839,-72.678678,co,manila,32,NA,5.23839,-72.678678,co,manila,32,NA,5.23839,-72.678678
Poland,NA,Lodz,NA,NA,NA,NA,NA,NA,NA,NA,NA,NA,Lidia Lipi_ska,Prospective,pl,lodz,74,NA,51.75,19.466667,pl,lodz,74,NA,51.75,19.466667,pl,lodz,74,NA,51.75,19.466667
Poland,NA,Warsaw,http://www.meetup.com/Spotkania-Entuzjastow-R-Warsaw-R-Users-Group-Meetup/,NA,warsaw@rladies.org,https://www.facebook.com/RLadiesWarsaw/,NA,NA,NA,https://github.com/rladies/meetup-presentations_warsaw,NA,NA,"Olga Mierzwa-Sulima, Natalia Potocka, Alicja Gosiewska, Anna Kozak, Katarzyna Woznica",Active,jm,warsaw,07,NA,18.1333333,-76.55,jm,warsaw,07,NA,18.1333333,-76.55,jm,warsaw,07,NA,18.1333333,-76.55
Portugal,NA,Lisbon,https://www.meetup.com/rladies-lisboa/,https://twitter.com/RLadiesLx,lisbon@rladies.org,https://www.facebook.com/RLadiesLisboa,NA,NA,NA,https://github.com/rladies/meetup-presentations_lisbon,NA,NA,"Andreia Carlos, Carolina Frias",Active,NA,NA,NA,NA,NA,NA,NA,NA,NA,NA,NA,NA,NA,NA,NA,NA,NA,NA
Romania,NA,Bucharest,https://www.meetup.com/rladies-bucharest/,https://twitter.com/rladiesbuchares,bucuresti@rladies.org,https://www.facebook.com/RLadiesBucharest,NA,NA,NA,https://github.com/rladies/meetup-presentations_bucharest,https://www.rladiesbucharest.org/,https://rladiesbucharest.slack.com,Ines Teaca,Active,ro,bucharest,10,1877155,44.433333000000005,26.1,ro,bucharest,10,1877155,44.433333000000005,26.1,ro,bucharest,10,1877155,44.433333000000005,26.1
Russia,NA,St. Petersburg,NA,NA,NA,NA,NA,NA,NA,NA,NA,NA,Alina Bakhitova,Prospective,NA,NA,NA,NA,NA,NA,NA,NA,NA,NA,NA,NA,NA,NA,NA,NA,NA,NA
Saudi Arabia,NA,Alkhobar,NA,NA,NA,NA,NA,NA,NA,NA,NA,NA,Sarah Alduayj,Prospective,NA,NA,NA,NA,NA,NA,NA,NA,NA,NA,NA,NA,NA,NA,NA,NA,NA,NA
Saudi Arabia,NA,Riyadh,NA,NA,NA,NA,NA,NA,NA,NA,NA,NA,Faten Alamri,Prospective,iq,riyadh,13,NA,35.3,43.9166667,iq,riyadh,13,NA,35.3,43.9166667,iq,riyadh,13,NA,35.3,43.9166667
Serbia,NA,Belgrade,https://www.meetup.com/rladies-belgrade/,https://twitter.com/RLadiesBelgrade,belgrade@rladies.org,NA,NA,NA,NA,NA,NA,NA,"Nadica Miljkovic, Vesna Oro, Tatjana Kecojević",Active,be,belgrade,07,NA,50.466667,4.8333330000000005,be,belgrade,07,NA,50.466667,4.8333330000000005,be,belgrade,07,NA,50.466667,4.8333330000000005
Serbia,NA,Nis,https://www.meetup.com/rladies-nis/,NA,nis@rladies.org,NA,NA,NA,NA,NA,NA,NA,"Marija Veljković, Andjela Todorović",Active,ir,nis,15,NA,32.216667,48.35,ir,nis,15,NA,32.216667,48.35,ir,nis,15,NA,32.216667,48.35
Serbia,NA,Novi Sad,https://www.meetup.com/rladies-novi-sad/,NA,novisad@rladies.org,NA,NA,NA,NA,https://github.com/rladies/meetup-presentations_novi-sad,NA,NA,"Katica Ristic, Tatjana Kecojević, Olivera Grljević,Maja Pokusevski, Ranka Medenica Todorović, Milena Kresoja",Active,rs,novi sad,02,194405,45.251667,19.836944,rs,novi sad,02,194405,45.251667,19.836944,rs,novi sad,02,194405,45.251667,19.836944
South Africa,NA,Cape Town,https://www.meetup.com/rladies-cape-town/,https://twitter.com/RLadiesCapeTown,capetown@rladies.org,NA,NA,NA,NA,https://github.com/rladies/meetup-presentations_capetown,NA,NA,Theoni Photopoulou,Active,za,cape town,11,3433504,-33.925839,18.423218,za,cape town,11,3433504,-33.925839,18.423218,za,cape town,11,3433504,-33.925839,18.423218
South Africa,NA,Durban,NA,NA,NA,NA,NA,NA,NA,NA,NA,NA,"Nitya Manjari Dasi, Deveshnie Mudaly",Prospective,fr,durban,A9,NA,42.994896000000004,2.8157389999999998,fr,durban,A9,NA,42.994896000000004,2.8157389999999998,fr,durban,A9,NA,42.994896000000004,2.8157389999999998
South Africa,NA,Johannesburg,https://www.meetup.com/rladies-johannesburg/,https://twitter.com/RLadiesJozi,jozi@rladies.org,NA,NA,NA,NA,https://github.com/rladies/meetup-presentations_jozi,NA,NA,"Vebashini Naidoo, Retha Langa",Active,sr,johannesburg,11,NA,5.9,-55.05,sr,johannesburg,11,NA,5.9,-55.05,sr,johannesburg,11,NA,5.9,-55.05
Spain,NA,Barcelona,http://www.meetup.com/rladies-barcelona/,https://twitter.com/RLadiesBCN,bcn@rladies.org,NA,NA,https://www.periscope.tv/RLadiesBCN,NA,https://github.com/rladies/meetup-presentations_barcelona,NA,NA,"Ania Alay, Mireia Ramos, Natalia Vilor,Sarah Bonnin",Active,aw,barcelona,00,NA,12.516666699999998,-70.0166667,aw,barcelona,00,NA,12.516666699999998,-70.0166667,aw,barcelona,00,NA,12.516666699999998,-70.0166667
Spain,NA,Bilbao,https://www.meetup.com/rladies-bilbao/,https://twitter.com/RLadiesBIO,bilbao@rladies.org,NA,NA,NA,NA,NA,NA,NA,"Diana Marcela Perez Valencia, Lore Zumeta Olaskoaga, Maria Xose Rodriguez Alvarez, Amaia Abanda Elustondo, Leire Citores Martinez, Amaia Iparragirre, Ainhoa Ochoa",Active,co,bilbao,28,NA,3.2748049999999997,-75.746765,co,bilbao,28,NA,3.2748049999999997,-75.746765,co,bilbao,28,NA,3.2748049999999997,-75.746765
Spain,NA,Madrid,https://www.meetup.com/rladies-madrid/,https://twitter.com/RLadiesMAD,madrid@rladies.org,NA,NA,NA,NA,https://github.com/rladies/meetup-presentations_madrid,NA,NA,"Bea Hernández, Inés Huertas, Leticia Martín-Fuertes, Elen Irazabal",Active,co,madrid,33,50438,4.732444999999999,-74.26419200000001,co,madrid,33,50438,4.732444999999999,-74.26419200000001,co,madrid,33,50438,4.732444999999999,-74.26419200000001
Spain,NA,Salamanca,NA,NA,NA,NA,NA,NA,NA,NA,NA,NA,Ana Nieto Librero,Prospective,ar,salamanca,17,NA,-26.2,-64.783333,ar,salamanca,17,NA,-26.2,-64.783333,ar,salamanca,17,NA,-26.2,-64.783333
Spain,NA,Sevilla,NA,NA,NA,NA,NA,NA,NA,NA,NA,NA,Ana Magdalena Vargas Martinez,Prospective,co,sevilla,02,NA,5.816667,-75.9,co,sevilla,02,NA,5.816667,-75.9,co,sevilla,02,NA,5.816667,-75.9
Spain,NA,Valencia,https://www.meetup.com/rladies-valencia/,https://twitter.com/RLadiesValencia,valencia@rladies.org,NA,NA,NA,NA,NA,NA,NA,Lidia Contreras,Retired on 29-09-2019,bo,valencia,04,NA,-16.6666667,-68.0333333,bo,valencia,04,NA,-16.6666667,-68.0333333,bo,valencia,04,NA,-16.6666667,-68.0333333
Sri Lanka,NA,Colombo,https://www.meetup.com/rladies-colombo/,NA,colombo@rladies.org,NA,NA,NA,NA,https://github.com/rladiescolombo,https://rladiescolombo.netlify.com/,NA,"Dilini Talagala, Thiyanga Talagala",Active,br,colombo,18,217002,-25.283333,-49.233333,br,colombo,18,217002,-25.283333,-49.233333,br,colombo,18,217002,-25.283333,-49.233333
Sudan,NA,Al-Khartum,https://www.meetup.com/rladies-al-khartum,NA,al-khartum@rladies.org,NA,NA,NA,NA,NA,NA,NA,"Sarah Abdelaziz, Rana Ahmed",Active,NA,NA,NA,NA,NA,NA,NA,NA,NA,NA,NA,NA,NA,NA,NA,NA,NA,NA
Sweden,NA,Goteborg,https://www.meetup.com/rladies-goteborg,NA,goteborg@rladies.org,NA,NA,NA,NA,NA,NA,NA,"Erica Metheney, Natalia Alvarado",Active,NA,NA,NA,NA,NA,NA,NA,NA,NA,NA,NA,NA,NA,NA,NA,NA,NA,NA
Sweden,NA,Stockholm,https://www.meetup.com/rladies-stockholm/,https://twitter.com/RLadiesSthlm,stockholm@rladies.org,NA,NA,NA,NA,https://github.com/rladies/meetup-presentations_stockholm,NA,NA,"Elisabeth Dahlqwist, Nina Lindell, Maya Alsheh Ali, Aminata Ndiaye, Ana Turk, Nissa Ferm, Ashley Thompson",Active,se,stockholm,07,NA,61.883056,13.75,se,stockholm,07,NA,61.883056,13.75,se,stockholm,07,NA,61.883056,13.75
Switzerland,NA,Lausanne,https://www.meetup.com/rladies-lausanne/,https://twitter.com/RLadiesLausanne,rladieslausanne@gmail.com,https://www.facebook.com/RLadiesLausanne/,NA,NA,NA,https://github.com/rladies/meetup-presentations_lausanne,https://rladieslausanne.github.io/,NA,"Andrea Komljenovic, Ninon Mounier, Sarvenaz Choobdar, Sina Rüeger, Liza Darrous",Active,ch,lausanne,23,118015,46.533333,6.6666669999999995,ch,lausanne,23,118015,46.533333,6.6666669999999995,ch,lausanne,23,118015,46.533333,6.6666669999999995
Switzerland,NA,Zurich,NA,NA,NA,NA,NA,NA,NA,NA,NA,NA,Lisa-Christina Winter,Prospective,ch,zurich,25,346185,47.366667,8.55,ch,zurich,25,346185,47.366667,8.55,ch,zurich,25,346185,47.366667,8.55
Taiwan,NA,Taipei,https://www.meetup.com/rladies-taipei/,NA,taipei@rladies.org,https://www.facebook.com/groups/twrladies,NA,NA,NA,https://github.com/rladies/meetup-presentations_taipei,NA,NA,"Juyin Tang, Chiayi Yen, Ning Chen",Active,cn,taipei,04,NA,34.7,119.233333,cn,taipei,04,NA,34.7,119.233333,cn,taipei,04,NA,34.7,119.233333
Tunisia,NA,Tunis,NA,NA,NA,NA,NA,NA,NA,NA,NA,NA,Hédia Tnani,Prospective,eg,tunis,24,NA,26.616666700000003,31.683333299999997,eg,tunis,24,NA,26.616666700000003,31.683333299999997,eg,tunis,24,NA,26.616666700000003,31.683333299999997
Turkey,NA,Ankara,https://www.meetup.com/rladies-ankara/,NA,ankara@rladies.org,NA,NA,NA,NA,NA,NA,NA,Mubina Ipek,Active,ge,ankara,39,NA,42.55,43.4,ge,ankara,39,NA,42.55,43.4,ge,ankara,39,NA,42.55,43.4
Turkey,NA,Eskisehir,https://www.meetup.com/rladies-eskisehir,https://twitter.com/RLadiesEskisehR,eskisehir@rladies.org,NA,NA,NA,NA,https://github.com/rladies/meetup-presentations_eskisehir,NA,NA,Betül KAN KILINÇ,Active,tr,eskisehir,26,515155,39.776666999999996,30.520556,tr,eskisehir,26,515155,39.776666999999996,30.520556,tr,eskisehir,26,515155,39.776666999999996,30.520556
Turkey,NA,Istanbul,https://www.meetup.com/rladies-istanbul/,https://twitter.com/RLadiesIstanbul,istanbul@rladies.org,NA,NA,NA,NA,https://github.com/rladies/meetup-presentations_istanbul,NA,NA,Hazel Kavili,Active,tr,istanbul,34,9797536,41.018611,28.964722,tr,istanbul,34,9797536,41.018611,28.964722,tr,istanbul,34,9797536,41.018611,28.964722
Turkey,NA,Izmir,https://www.meetup.com/rladies-izmir/,https://twitter.com/RLadiesIzmir,izmir@rladies.org,NA,NA,NA,NA,NA,NA,NA,Necla Kayaalp,Active,tr,izmir,35,2501895,38.412726,27.138376,tr,izmir,35,2501895,38.412726,27.138376,tr,izmir,35,2501895,38.412726,27.138376
Turkey,NA,Karabük,NA,NA,NA,NA,NA,NA,NA,NA,NA,NA,Cansu Uzunsimsek,Prospective,tr,karabuk,05,NA,40.73762,36.178234,tr,karabuk,05,NA,40.73762,36.178234,tr,karabuk,05,NA,40.73762,36.178234
Turkey,NA,Mersin,NA,NA,NA,NA,NA,NA,NA,NA,NA,NA,Gizem Akkuş,Prospective,tr,mersin,32,612540,36.732778,34.644166999999996,tr,mersin,32,612540,36.732778,34.644166999999996,tr,mersin,32,612540,36.732778,34.644166999999996
Uganda,NA,Kampala,NA,https://twitter.com/Rladieskampala,kampala@rladies.org,NA,NA,NA,NA,NA,NA,NA,"Aine Lorna Maria, Shakirah Nakalungi",Prospective,cd,kampala,07,NA,-2.2,27.75,cd,kampala,07,NA,-2.2,27.75,cd,kampala,07,NA,-2.2,27.75
Ukraine,NA,Kyiv,https://www.meetup.com/rladies-kyiv/,NA,kyiv@rladies.org,NA,NA,NA,NA,NA,NA,NA,"Iaroslava Mizai, Tamara Koliada",Active,ua,kyiv,12,NA,50.433333000000005,30.516666999999998,ua,kyiv,12,NA,50.433333000000005,30.516666999999998,ua,kyiv,12,NA,50.433333000000005,30.516666999999998
Ukraine,NA,Lviv,https://www.meetup.com/rladies-lviv/,NA,lviv@rladies.org,NA,NA,NA,NA,NA,NA,NA,Mariia Koliada,Active,ua,lviv,15,NA,49.840661,24.030451,ua,lviv,15,NA,49.840661,24.030451,ua,lviv,15,NA,49.840661,24.030451
United Arab Emirates,NA,Dubai,NA,NA,NA,NA,NA,NA,NA,NA,NA,NA,Lakshmi Krishnamurthy,Prospective,ae,dubai,03,1137376,25.258172000000002,55.304717000000004,ae,dubai,03,1137376,25.258172000000002,55.304717000000004,ae,dubai,03,1137376,25.258172000000002,55.304717000000004
United Kingdom,NA,Cambridge,https://www.meetup.com/rladies-cambridge/,https://twitter.com/RLadiesCam,cambridge@rladies.org,NA,NA,NA,NA,NA,http://rladies.org.uk/,NA,Alexia Cardona,Active,au,cambridge,06,NA,-42.833333,147.45,au,cambridge,06,NA,-42.833333,147.45,au,cambridge,06,NA,-42.833333,147.45
United Kingdom,NA,Coventry,https://www.meetup.com/rladies-coventry/,NA,coventry@rladies.org,NA,NA,NA,NA,NA,NA,NA,"Marion Coumel, Sophie Hardy",Active,gb,coventry,C7,308314,52.416667,-1.55,gb,coventry,C7,308314,52.416667,-1.55,gb,coventry,C7,308314,52.416667,-1.55
United Kingdom,NA,Edinburgh,https://www.meetup.com/rladies-edinburgh/,https://twitter.com/RLadiesEdinb,edinburgh@rladies.org,NA,NA,NA,NA,NA,NA,NA,"Karim Rivera, Alicia Forsberg",Active,gb,edinburgh,U8,435794,55.95,-3.2,gb,edinburgh,U8,435794,55.95,-3.2,gb,edinburgh,U8,435794,55.95,-3.2
United Kingdom,NA,Exeter,https://www.meetup.com/rladies-exeter/,NA,exeter@rladies.org,NA,NA,NA,NA,NA,NA,NA,Raluca Popp,Active,au,exeter,02,NA,-34.612831,150.320831,au,exeter,02,NA,-34.612831,150.320831,au,exeter,02,NA,-34.612831,150.320831
United Kingdom,NA,Glasgow,NA,NA,NA,NA,NA,NA,NA,NA,NA,NA,"Joanna Ferrie, Rebecca Tonner",Prospective,gb,glasgow,V2,610271,55.833332999999996,-4.25,gb,glasgow,V2,610271,55.833332999999996,-4.25,gb,glasgow,V2,610271,55.833332999999996,-4.25
United Kingdom,NA,Lancaster,https://www.meetup.com/rladies-lancaster/,https://twitter.com/RLadiesLancs,lancaster@rladies.org,NA,NA,NA,NA,https://github.com/rladies/meetup-presentations_lancaster,NA,NA,Rhian Davies,Active,au,lancaster,07,NA,-36.316666999999995,145.133333,au,lancaster,07,NA,-36.316666999999995,145.133333,au,lancaster,07,NA,-36.316666999999995,145.133333
United Kingdom,NA,Liverpool,https://www.meetup.com/rladies-liverpool/,https://twitter.com/RLadiesLivUK,liverpool@rladies.org,NA,NA,NA,NA,NA,NA,NA,Diana Iserazo,Active,au,liverpool,02,NA,-33.9,150.933333,au,liverpool,02,NA,-33.9,150.933333,au,liverpool,02,NA,-33.9,150.933333
United Kingdom,NA,London,https://www.meetup.com/rladies-london/,https://twitter.com/RLadiesLondon,london@rladies.org,NA,NA,https://www.periscope.tv/RLadiesLondon,NA,https://github.com/rladies/meetup-presentations_london,NA,NA,"Claudia Vitolo, Hannah Frick, Grace Meyer, Kasia Kulma, Agnes Salanki, Emma Vestesson",Active,bz,london,04,NA,17.9833333,-88.4333333,bz,london,04,NA,17.9833333,-88.4333333,bz,london,04,NA,17.9833333,-88.4333333
United Kingdom,NA,Loughborough,https://www.meetup.com/rladies-loughborough/,https://twitter.com/RLadiesLboro,loughborough@rladies.org,NA,NA,NA,NA,https://github.com/rladies/meetup-presentations_loughborough,NA,NA,"Theresa Elise Wege, Kerry Rosenthal, Steph Farley",Active,gb,loughborough,H5,59317,52.766667000000005,-1.2,gb,loughborough,H5,59317,52.766667000000005,-1.2,gb,loughborough,H5,59317,52.766667000000005,-1.2
United Kingdom,NA,Manchester,https://www.meetup.com/rladies-manchester/,https://twitter.com/RLadiesManchest,manchester@rladies.org,NA,NA,NA,NA,https://github.com/RLadiesManchester,NA,NA,"Ellen Talbot, Bethan Blakeley",Active,bo,manchester,06,NA,-11.5,-68.0166667,bo,manchester,06,NA,-11.5,-68.0166667,bo,manchester,06,NA,-11.5,-68.0166667
United Kingdom,NA,Newcastle,https://www.meetup.com/rladies-newcastle/,NA,newcastle@rladies.org,NA,NA,NA,NA,NA,NA,NA,"Jessica Ward, Friederike Bolam, Louise Mair, Danielle Turton, Lauren Ackerman, Aoife O'Neill",Active,au,newcastle,02,497961,-32.927792,151.78448500000002,au,newcastle,02,497961,-32.927792,151.78448500000002,au,newcastle,02,497961,-32.927792,151.78448500000002
United Kingdom,NA,Oxford,https://www.meetup.com/rladies-oxford/,NA,oxford@rladies.org,NA,NA,NA,NA,NA,NA,NA,"Punam Amratia, Kasia Kedzierska, Fran Reynolds, Varshita Sher",Active,bb,oxford,07,NA,13.2833333,-59.6,bb,oxford,07,NA,13.2833333,-59.6,bb,oxford,07,NA,13.2833333,-59.6
United Kingdom,NA,Reading,NA,NA,NA,NA,NA,NA,NA,NA,NA,NA,Emmanuelle Nunes,Prospective,gb,reading,K7,244071,51.433333000000005,-1,gb,reading,K7,244071,51.433333000000005,-1,gb,reading,K7,244071,51.433333000000005,-1
United Kingdom,NA,St. Andrews,NA,NA,NA,NA,NA,NA,NA,NA,NA,NA,Chia Liu,Prospective,us,st. andrews,SC,NA,34.0486111,-81.1033333,us,st. andrews,SC,NA,34.0486111,-81.1033333,us,st. andrews,SC,NA,34.0486111,-81.1033333
United Kingdom,NA,Wigan,NA,NA,NA,NA,NA,NA,NA,NA,NA,NA,Kate Moody,Prospective,ca,wigan,12,NA,60.65,-135,ca,wigan,12,NA,60.65,-135,ca,wigan,12,NA,60.65,-135
Uruguay,NA,Montevideo,https://www.meetup.com/rladies-montevideo/,https://twitter.com/RLadiesMVD,montevideo@rladies.org,https://www.facebook.com/RLadiesMVD/,NA,NA,NA,https://github.com/rladies/meetup-presentations_montevideo,NA,NA,"Daniela Vázquez, Natalia da Silva, María Inés Fariello, Paula Pereda",Active,bo,montevideo,03,NA,-12.95,-64.7,bo,montevideo,03,NA,-12.95,-64.7,bo,montevideo,03,NA,-12.95,-64.7
USA,Alabama,Montgomery,https://www.meetup.com/rladies-montgomery/,NA,NA,NA,NA,NA,NA,NA,NA,NA,Rachel Ramirez,Retired on 29-09-2019,au,montgomery,07,NA,-38.033333,147.066667,au,montgomery,07,NA,-38.033333,147.066667,au,montgomery,07,NA,-38.033333,147.066667
USA,Arizona,Tucson,https://www.meetup.com/rladies-tucson-az/,https://twitter.com/RLadiesTucson,tuscon@rladies.org,NA,NA,NA,NA,NA,NA,NA,Adriana Picoral,Active,us,tucson,AZ,518907,32.2216667,-110.9258333,us,tucson,AZ,518907,32.2216667,-110.9258333,us,tucson,AZ,518907,32.2216667,-110.9258333
USA,Arkansas,Fayetteville,NA,NA,fayetteville@rladies.org,NA,NA,NA,NA,NA,NA,NA,Morgan Middlebrooks,Prospective,us,fayetteville,AL,NA,33.1455556,-86.4058333,us,fayetteville,AL,NA,33.1455556,-86.4058333,us,fayetteville,AL,NA,33.1455556,-86.4058333
USA,Arkansas,Little Rock,NA,NA,NA,NA,NA,NA,NA,NA,NA,NA,Kristi Toblesky,Prospective,us,little rock,AL,NA,31.114444399999996,-87.38888890000001,us,little rock,AL,NA,31.114444399999996,-87.38888890000001,us,little rock,AL,NA,31.114444399999996,-87.38888890000001
USA,California,Arcata,NA,NA,NA,NA,NA,NA,NA,NA,NA,NA,Shannon Boyle,Prospective,bo,arcata,04,NA,-17.1166667,-68,bo,arcata,04,NA,-17.1166667,-68,bo,arcata,04,NA,-17.1166667,-68
USA,California,Bakersfield,NA,NA,NA,NA,NA,NA,NA,NA,NA,NA,Manali Gadre,Prospective,us,bakersfield,CA,291389,35.3733333,-119.01777779999999,us,bakersfield,CA,291389,35.3733333,-119.01777779999999,us,bakersfield,CA,291389,35.3733333,-119.01777779999999
USA,California,Davis,NA,NA,NA,NA,NA,NA,NA,https://github.com/rladies/meetup-presentations_newcastle,NA,NA,"Meghan Klasic, Michaela C Debolt",Prospective,co,davis,28,NA,3.842222,-75.68316,co,davis,28,NA,3.842222,-75.68316,co,davis,28,NA,3.842222,-75.68316
USA,California,Irvine,https://www.meetup.com/rladies-irvine/,https://twitter.com/RLadiesIrvine,irvine@rladies.org,NA,NA,NA,NA,https://github.com/rladies/meetup-presentations_irvine,http://www.rladiesirvine.org/,http://bit.ly/SoCal-RUG-Slack,"Alyssa Columbus, Linda Palmer, Madeline Bauer",Active,ca,irvine,01,NA,49.95,-110.266667,ca,irvine,01,NA,49.95,-110.266667,ca,irvine,01,NA,49.95,-110.266667
USA,California,Los Angeles,https://www.meetup.com/rladies-la/,https://twitter.com/RLadiesLA,la@rladies.org,NA,NA,NA,NA,https://github.com/rladies/meetup-presentations_la,NA,NA,"Katie Leap, Amanda Tilot",Active,ar,los angeles,01,NA,-34.455826,-60.177703,ar,los angeles,01,NA,-34.455826,-60.177703,ar,los angeles,01,NA,-34.455826,-60.177703
USA,California,Merced,NA,NA,NA,NA,NA,NA,NA,NA,NA,NA,Andrea Sánchez-Tapia,Prospective,ar,merced,02,NA,-28.15195,-65.66029,ar,merced,02,NA,-28.15195,-65.66029,ar,merced,02,NA,-28.15195,-65.66029
USA,California,Pasadena,https://www.meetup.com/rladies-pasadena/,NA,pasadena@rladies.org,NA,NA,NA,NA,NA,NA,NA,"Gail Peretsman-Clement, Zhi Yang, Donna Wrublewski",Active,co,pasadena,33,NA,4.361389,-74.351389,co,pasadena,33,NA,4.361389,-74.351389,co,pasadena,33,NA,4.361389,-74.351389
USA,California,Riverside,https://www.meetup.com/rladies-riverside/,https://twitter.com/RLadiesRiversd,riverside@rladies.org,NA,NA,NA,NA,https://github.com/rladies/meetup-presentations_riverside,NA,NA,"Teresa Bohner, Marilia Gaiarsa, Daniela Cassol",Active,au,riverside,02,NA,-31.016666999999998,148.383333,au,riverside,02,NA,-31.016666999999998,148.383333,au,riverside,02,NA,-31.016666999999998,148.383333
USA,California,San Diego,https://www.meetup.com/rladies-san-diego/,https://twitter.com/RLadiesSanDiego,sandiego@rladies.org,https://www.facebook.com/groups/rladiessandiego/,NA,NA,NA,https://github.com/rladies/meetup-presentations_sandiego,NA,NA,"Juliana Capitanio, Viola Glenn, Elke Patton",Active,ar,san diego,06,NA,-28.750971000000003,-58.655829000000004,ar,san diego,06,NA,-28.750971000000003,-58.655829000000004,ar,san diego,06,NA,-28.750971000000003,-58.655829000000004
USA,California,San Francisco,https://www.meetup.com/rladies-san-francisco/,https://twitter.com/RladiesSF,sf@rladies.org,NA,NA,https://www.periscope.tv/RLadiesSF/,NA,https://github.com/rladies/meetup-presentations_sanfrancisco,NA,NA,"Gabriela de Queiroz, Erin LeDell, Ciera Martinez",Active,ar,san francisco,02,NA,-28.963096000000004,-65.42670600000001,ar,san francisco,02,NA,-28.963096000000004,-65.42670600000001,ar,san francisco,02,NA,-28.963096000000004,-65.42670600000001
USA,California,Santa Barbara,https://www.meetup.com/rladies-santa-barbara/,https://twitter.com/RLadiesSB,santabarbara@rladies.org,NA,NA,NA,NA,https://github.com/rladies/meetup-presentations_santabarbara,NA,NA,"Julia Stewart Lowndes, Allison Horst, Jamie Afflerbach",Active,ar,santa barbara,10,NA,-23.606607999999998,-65.030371,ar,santa barbara,10,NA,-23.606607999999998,-65.030371,ar,santa barbara,10,NA,-23.606607999999998,-65.030371
USA,California,Santa Cruz,NA,NA,NA,NA,NA,NA,NA,NA,NA,NA,Kate Kelsey,Prospective,an,santa cruz,00,NA,12.233333300000002,-68.35,an,santa cruz,00,NA,12.233333300000002,-68.35,an,santa cruz,00,NA,12.233333300000002,-68.35
USA,Colorado,Boulder,https://www.meetup.com/rladies-boulder/,https://twitter.com/RLadiesBoulder,boulder@rladies.org,NA,NA,NA,NA,https://github.com/rladies/meetup-presentations_boulder,NA,NA,"Lisa Moller, Courtney Van Den Elzen, Leigh Alexander, Marta Jankowska",Active,au,boulder,08,NA,-30.746140000000004,121.474197,au,boulder,08,NA,-30.746140000000004,121.474197,au,boulder,08,NA,-30.746140000000004,121.474197
USA,Colorado,Denver,https://www.meetup.com/rladies-denver/,NA,NA,NA,NA,NA,NA,NA,NA,NA,"Erin Hodgess, Evangeline Reynolds, Meghan Sposato",Active,au,denver,07,NA,-37.266667,144.3,au,denver,07,NA,-37.266667,144.3,au,denver,07,NA,-37.266667,144.3
USA,Colorado,Fort Collins,NA,NA,NA,NA,NA,NA,NA,NA,NA,NA,Kathleen Wendt,Prospective,us,fort collins,CO,129252,40.5852778,-105.08388889999999,us,fort collins,CO,129252,40.5852778,-105.08388889999999,us,fort collins,CO,129252,40.5852778,-105.08388889999999
USA,Connecticut,Hartford,https://www.meetup.com/rladies-connecticut/,https://twitter.com/RLadiesCT,hartford@rladies.org,NA,NA,NA,NA,NA,NA,NA,"Erica Holdridge, Jasmine Dumas",Active,gb,hartford,C3,NA,52.333333,-0.15,gb,hartford,C3,NA,52.333333,-0.15,gb,hartford,C3,NA,52.333333,-0.15
USA,Connecticut,New Haven,NA,NA,NA,NA,NA,NA,NA,NA,NA,NA,Josephine Ankrah,Prospective,bz,new haven,06,NA,16.2666667,-88.5666667,bz,new haven,06,NA,16.2666667,-88.5666667,bz,new haven,06,NA,16.2666667,-88.5666667
USA,Florida,Gainesville,https://www.meetup.com/rladies-gainesville/,https://twitter.com/RLadiesGNV,gainesville@rladies.org,NA,NA,NA,NA,NA,NA,NA,"Geraldine Klarenberg, Javiera Rudolph, Kristen Sauby",Active,us,gainesville,AL,NA,32.8208333,-88.15888890000001,us,gainesville,AL,NA,32.8208333,-88.15888890000001,us,gainesville,AL,NA,32.8208333,-88.15888890000001
USA,Florida,Jacksonville,NA,NA,NA,NA,NA,NA,NA,NA,NA,NA,Camille Knepper,Prospective,cu,jacksonville,04,NA,21.499444399999998,-83.09777779999999,cu,jacksonville,04,NA,21.499444399999998,-83.09777779999999,cu,jacksonville,04,NA,21.499444399999998,-83.09777779999999
USA,Florida,Miami,https://www.meetup.com/rladies-miami/,https://twitter.com/RLadiesMiami,miami@rladies.org,NA,NA,NA,NA,https://github.com/rladies/meetup-presentations_miami,NA,NA,"Laura Gabrysiak Gómez, Catalina Arango, Layla Bouzoubaa",Active,bj,miami,01,NA,9.55,1.5166667,bj,miami,01,NA,9.55,1.5166667,bj,miami,01,NA,9.55,1.5166667
USA,Florida,Orlando,https://www.meetup.com/rladies-orlando/,https://twitter.com/RLadiesOrlando,orlando@rladies.org,NA,NA,NA,NA,https://github.com/rladies/meetup-presentations_orlando,NA,NA,"Kathy Joshi, Vanessa Eaton",Active,br,orlando,14,NA,-14.583332999999998,-56.733332999999995,br,orlando,14,NA,-14.583332999999998,-56.733332999999995,br,orlando,14,NA,-14.583332999999998,-56.733332999999995
USA,Florida,Sarasota,https://www.meetup.com/rladies-sarasota/,https://twitter.com/RLadiesSarasota,sarasota@rladies.org,NA,NA,NA,NA,https://github.com/rladies/meetup-presentations_sarasota,NA,NA,Fanny Chow,Active,us,sarasota,FL,53327,27.336111100000004,-82.5308333,us,sarasota,FL,53327,27.336111100000004,-82.5308333,us,sarasota,FL,53327,27.336111100000004,-82.5308333
USA,Florida,Tallahassee,https://www.meetup.com/rladies-tallahassee/,https://twitter.com/RLadiesTLH,tallahassee@rladies.org,NA,NA,NA,NA,NA,NA,NA,"Jamie Quinn, Jennifer McHenry",Retired on 29-09-2019,us,tallahassee,FL,153583,30.438055600000006,-84.2808333,us,tallahassee,FL,153583,30.438055600000006,-84.2808333,us,tallahassee,FL,153583,30.438055600000006,-84.2808333
USA,Florida,Tampa,https://www.meetup.com/rladies-tampa/,https://twitter.com/RLadiesTampa,tampa@rladies.org,NA,NA,NA,NA,https://github.com/rladies/meetup-presentations_tampa,NA,NA,"Gina Griffin, Saarah Kison, Nik Ford, Heidi Bissell",Active,ao,tampa,13,NA,-15.5,13.45,ao,tampa,13,NA,-15.5,13.45,ao,tampa,13,NA,-15.5,13.45
USA,Georgia,Athens,https://www.meetup.com/rladies-athens-ga/,NA,NA,NA,NA,NA,NA,https://github.com/rladies/meetup-presentations_athens-ga,NA,NA,Camila Livio Emidio,Active,gr,athens,35,729139,37.9833333,23.7333333,gr,athens,35,729139,37.9833333,23.7333333,gr,athens,35,729139,37.9833333,23.7333333
USA,Georgia,Atlanta,https://www.meetup.com/rladies-atlanta/,https://twitter.com/RLadiesAtlanta,atlanta@rladies.org,NA,NA,NA,NA,NA,NA,NA,"Melinda Higgins, Emilie Seena, Patricia Castro",Active,cr,atlanta,06,NA,9.716667,-82.983333,cr,atlanta,06,NA,9.716667,-82.983333,cr,atlanta,06,NA,9.716667,-82.983333
USA,Idaho,Moscow,NA,NA,NA,NA,NA,NA,NA,NA,NA,NA,Adrienne Marshall,Prospective,ru,moscow,48,10381288,55.752221999999996,37.615556,ru,moscow,48,10381288,55.752221999999996,37.615556,ru,moscow,48,10381288,55.752221999999996,37.615556
USA,Illinois,Champaign,NA,NA,NA,NA,NA,NA,NA,NA,NA,NA,Marisa Ashley Smith,Prospective,us,champaign,IL,75670,40.1163889,-88.2433333,us,champaign,IL,75670,40.1163889,-88.2433333,us,champaign,IL,75670,40.1163889,-88.2433333
USA,Illinois,Chicago,https://www.meetup.com/rladies-chicago/,https://twitter.com/RLadiesChicago,chicago@rladies.org,NA,NA,NA,NA,https://github.com/rladies/meetup-presentations_chicago,NA,NA,"Angela Li,Katherine Simeon, Amy Yang, Anne Corinne-Carroll, Ola Giwa, Caroline Williams, Sushmita Gopalan, Scarlett Winters",Active,bz,chicago,01,NA,17.8,-88.3,bz,chicago,01,NA,17.8,-88.3,bz,chicago,01,NA,17.8,-88.3
USA,Indiana,Bloomington,NA,NA,NA,NA,NA,NA,NA,NA,NA,NA,Ana Isabel Bento,Prospective,us,bloomington,CA,22003,34.0702778,-117.395,us,bloomington,CA,22003,34.0702778,-117.395,us,bloomington,CA,22003,34.0702778,-117.395
USA,Indiana,South Bend,NA,NA,NA,NA,NA,NA,NA,NA,NA,NA,"Myrthe Faber, Kelsey M. Reese",Prospective,us,south bend,AR,NA,34.841666700000005,-92.0541667,us,south bend,AR,NA,34.841666700000005,-92.0541667,us,south bend,AR,NA,34.841666700000005,-92.0541667
USA,Iowa,Ames,https://www.meetup.com/rladies-ames/,https://twitter.com/RLadiesAmes,ames@rladies.org,NA,NA,NA,NA,https://github.com/rladies-ames,NA,NA,"Anabelle Laurent, Stephanie Reinders",Active,NA,NA,NA,NA,NA,NA,NA,NA,NA,NA,NA,NA,NA,NA,NA,NA,NA,NA
USA,Iowa,Des Moines,https://www.meetup.com/rladies-des-moines/,NA,desmoines@rladies.org,NA,NA,NA,NA,NA,NA,NA,Amanda Rae,Active,us,des moines,CA,NA,33.9319444,-117.96694440000002,us,des moines,CA,NA,33.9319444,-117.96694440000002,us,des moines,CA,NA,33.9319444,-117.96694440000002
USA,Iowa,Iowa City,https://www.meetup.com/rladies-iowa-city/,NA,iowacity@rladies.org,NA,NA,NA,NA,NA,NA,NA,"Marie Ozanne, Anna Reisetter, Alexandra Curtis",Active,us,iowa city,CA,NA,39.2916667,-121.4763889,us,iowa city,CA,NA,39.2916667,-121.4763889,us,iowa city,CA,NA,39.2916667,-121.4763889
USA,Kentucky,Lexington,NA,NA,NA,NA,NA,NA,NA,NA,NA,NA,Rebecca Jones,Prospective,lr,lexington,10,NA,5.040555599999999,-9.0380556,lr,lexington,10,NA,5.040555599999999,-9.0380556,lr,lexington,10,NA,5.040555599999999,-9.0380556
USA,Kentucky,Louisville,https://www.meetup.com/rladies-louisville/,https://twitter.com/RLadiesLouville,louisville@rladies.org,NA,NA,NA,NA,https://github.com/rladies/meetup-presentation_louisville,NA,NA,Samantha Carlisle,Active,bz,louisville,03,NA,18.3166667,-88.5,bz,louisville,03,NA,18.3166667,-88.5,bz,louisville,03,NA,18.3166667,-88.5
USA,Louisiana,New Orleans,https://www.meetup.com/rladies-new-orleans/,NA,NA,NA,NA,NA,NA,NA,NA,NA,"Erin Cuyler, Danielle Oberdier",Active,bb,new orleans,08,NA,13.1,-59.6166667,bb,new orleans,08,NA,13.1,-59.6166667,bb,new orleans,08,NA,13.1,-59.6166667
USA,Maine,Portland,https://www.meetup.com/rladies-portland-maine/,https://twitter.com/RLadiesPortland,portland@rladies.org,NA,NA,NA,NA,https://github.com/rladies/meetup-presentations_portland,NA,NA,Jennifer Fleck,Retired on 29-09-2019,au,portland,02,NA,-33.35709,149.98147600000001,au,portland,02,NA,-33.35709,149.98147600000001,au,portland,02,NA,-33.35709,149.98147600000001
USA,Maryland,Baltimore,https://www.meetup.com/rladies-baltimore/,https://twitter.com/RLadiesBmore,bmore@rladies.org,NA,NA,NA,NA,https://github.com/rladies/meetup-presentations_baltimore,NA,NA,"Stephanie Hicks, Margaret Taub, Rachel Sparklin",Active,co,baltimore,28,NA,4.104444,-75.579444,co,baltimore,28,NA,4.104444,-75.579444,co,baltimore,28,NA,4.104444,-75.579444
USA,Maryland,Cambridge,NA,NA,NA,NA,NA,NA,NA,NA,NA,NA,Lisa Ziegler,Prospective,au,cambridge,06,NA,-42.833333,147.45,au,cambridge,06,NA,-42.833333,147.45,au,cambridge,06,NA,-42.833333,147.45
USA,Maryland,Lexington Park,https://www.meetup.com/rladies-lexington-park/,NA,lexingtonpark@rladies.org,NA,NA,NA,NA,NA,NA,NA,"Linden McBride, Caitlin Eger",Active,us,lexington park,MD,11746,38.2666667,-76.4541667,us,lexington park,MD,11746,38.2666667,-76.4541667,us,lexington park,MD,11746,38.2666667,-76.4541667
USA,Massachusetts,Boston,https://www.meetup.com/rladies-boston/,https://twitter.com/RLadiesBoston,boston@rladies.org,NA,NA,NA,NA,https://github.com/rladies/meetup-presentations_boston,https://rladies.github.io/Boston/,NA,"Marianna Foos, Maria Elena Morales, Phoebe Wong",Active,bo,boston,04,NA,-15.366666699999998,-67.58333329999999,bo,boston,04,NA,-15.366666699999998,-67.58333329999999,bo,boston,04,NA,-15.366666699999998,-67.58333329999999
USA,Massachusetts,Northampton,NA,NA,NA,NA,NA,NA,NA,NA,NA,NA,Paige Patrick,Prospective,au,northampton,08,NA,-28.351640999999997,114.62998200000001,au,northampton,08,NA,-28.351640999999997,114.62998200000001,au,northampton,08,NA,-28.351640999999997,114.62998200000001
USA,Massachusetts,Wellesley,NA,NA,NA,NA,NA,NA,NA,NA,NA,NA,Ally Kim,Prospective,au,wellesley,02,NA,-36.983333,149.1,au,wellesley,02,NA,-36.983333,149.1,au,wellesley,02,NA,-36.983333,149.1
USA,Michigan,East Lansing,https://www.meetup.com/rladies-east-lansing/,https://twitter.com/RLadiesELansing,eastlansing@rladies.org,https://facebook.com/rladieseastlansing,NA,NA,NA,https://github.com/rladies-eastlansing,https://rladies-eastlansing.github.io,https://rladies-eastlansing.slack.com,Janani Ravi & Camille Archer,Active,us,east lansing,MI,48371,42.7369444,-84.48388890000001,us,east lansing,MI,48371,42.7369444,-84.48388890000001,us,east lansing,MI,48371,42.7369444,-84.48388890000001
USA,Minnesota,Minneapolis-Saint Paul,https://www.meetup.com/rladies-tc/,https://twitter.com/RLadiesTC,minneapolis-saintpaul@rladies.org,NA,NA,NA,NA,NA,NA,NA,"Christina Knudson, Kierstin Catlett",Active,NA,NA,NA,NA,NA,NA,NA,NA,NA,NA,NA,NA,NA,NA,NA,NA,NA,NA
USA,Missisippi,Ocean Springs,NA,NA,NA,NA,NA,NA,NA,NA,NA,NA,Megumi Oshima,Prospective,us,ocean springs,MS,17659,30.411111100000003,-88.82777779999999,us,ocean springs,MS,17659,30.411111100000003,-88.82777779999999,us,ocean springs,MS,17659,30.411111100000003,-88.82777779999999
USA,Missouri,Kansas City,https://www.meetup.com/rladies-kansas-city/,NA,kansascity@rladies.org,NA,NA,NA,NA,https://github.com/rladies/meetup-presentations_kansas-city,NA,NA,"Boryana Koseva, Anna Pechenina, Gabriela Cipriano",Active,ni,kansas city,18,NA,13.2,-84.08333329999999,ni,kansas city,18,NA,13.2,-84.08333329999999,ni,kansas city,18,NA,13.2,-84.08333329999999
USA,Missouri,Mid-Missouri,https://www.meetup.com/rladies-mid-mo/,NA,mid-missouri@rladies.org,NA,NA,NA,NA,NA,NA,NA,"Hope Snyder, Linda A. Landon, Krista Galyen",Prospective,NA,NA,NA,NA,NA,NA,NA,NA,NA,NA,NA,NA,NA,NA,NA,NA,NA,NA
USA,Missouri,Springfield,https://www.meetup.com/rladies-springfield/,NA,springfieldmo@rladies.org,NA,NA,NA,NA,NA,NA,NA,Amber Gillenwaters,Retired on 29-09-2019,au,springfield,02,NA,-33.433333000000005,151.366667,au,springfield,02,NA,-33.433333000000005,151.366667,au,springfield,02,NA,-33.433333000000005,151.366667
USA,Missouri,St.Louis,https://www.meetup.com/rladies-st-louis/,https://twitter.com/RLadiesSTL,NA,NA,NA,NA,NA,https://github.com/rladies/meetup-presentations_stlouis,NA,NA,Jenine Harris,Active,NA,NA,NA,NA,NA,NA,NA,NA,NA,NA,NA,NA,NA,NA,NA,NA,NA,NA
USA,Montana,Bozeman,NA,NA,NA,NA,NA,NA,NA,NA,NA,NA,Allison Theobold,Prospective,us,bozeman,MT,33178,45.6797222,-111.03777779999999,us,bozeman,MT,33178,45.6797222,-111.03777779999999,us,bozeman,MT,33178,45.6797222,-111.03777779999999
USA,Nebraska,Lincoln,NA,NA,NA,NA,NA,NA,NA,NA,NA,NA,"Gabriella Palomo, Lyndsie Wszola, Alexis Saltzman, Elise Thayer",Prospective,ar,lincoln,01,24798,-34.866494,-61.530196999999994,ar,lincoln,01,24798,-34.866494,-61.530196999999994,ar,lincoln,01,24798,-34.866494,-61.530196999999994
USA,Nevada,Las Vegas,NA,NA,NA,NA,NA,NA,NA,NA,NA,NA,Maya Jaffe,Prospective,co,las vegas,02,NA,6.165,-74.845556,co,las vegas,02,NA,6.165,-74.845556,co,las vegas,02,NA,6.165,-74.845556
USA,New Jersey,Highland Park,https://www.meetup.com/rladies-highland-park/,NA,highlandpark@rladies.org,NA,NA,NA,NA,NA,NA,NA,"Michelle Stuart, Laura Fernandez Arroyo",Active,ca,highland park,01,NA,56.11666700000001,-118.85,ca,highland park,01,NA,56.11666700000001,-118.85,ca,highland park,01,NA,56.11666700000001,-118.85
USA,New Mexico,Albuquerque,NA,NA,NA,NA,NA,NA,NA,NA,NA,NA,Nicole Thompson,Prospective,ao,albuquerque,08,NA,-12.054203,15.209178,ao,albuquerque,08,NA,-12.054203,15.209178,ao,albuquerque,08,NA,-12.054203,15.209178
USA,New York,Albany,NA,NA,NA,NA,NA,NA,NA,NA,NA,NA,Rebecca Cowan,Prospective,au,albany,08,23913,-35.003101,117.86595200000001,au,albany,08,23913,-35.003101,117.86595200000001,au,albany,08,23913,-35.003101,117.86595200000001
USA,New York,Buffalo,https://www.meetup.com/rladies-buffalo/,https://twitter.com/RLadiesBuff,buffalo@rladies.org,NA,NA,NA,NA,NA,NA,NA,Lori Shepherd,Active,au,buffalo,07,NA,-38.65,146.033333,au,buffalo,07,NA,-38.65,146.033333,au,buffalo,07,NA,-38.65,146.033333
USA,New York,Ithaca,NA,NA,NA,NA,NA,NA,NA,NA,NA,NA,Dena Jane Clink,Prospective,au,ithaca,04,NA,-27.45,152.98333300000002,au,ithaca,04,NA,-27.45,152.98333300000002,au,ithaca,04,NA,-27.45,152.98333300000002
USA,New York,New York City,https://www.meetup.com/rladies-newyork/,https://twitter.com/RLadiesNYC,nyc@rladies.org,NA,NA,NA,NA,https://github.com/rladies/meetup-presentations_newyork,http://www.rladiesnyc.org/,NA,Soumya Kalra,Active,NA,NA,NA,NA,NA,NA,NA,NA,NA,NA,NA,NA,NA,NA,NA,NA,NA,NA
USA,New York,Rochester,NA,NA,NA,NA,NA,NA,NA,NA,NA,NA,Monica Javidnia,Prospective,au,rochester,05,NA,-33.7,138.48333300000002,au,rochester,05,NA,-33.7,138.48333300000002,au,rochester,05,NA,-33.7,138.48333300000002
USA,New York,Syracuse,https://www.meetup.com/rladies-syracuse/,NA,syracuse@rladies.org,NA,NA,NA,NA,NA,NA,NA,"Heather Kropp, Anna Talucci",Active,gd,syracuse,02,NA,12.0333333,-61.6833333,gd,syracuse,02,NA,12.0333333,-61.6833333,gd,syracuse,02,NA,12.0333333,-61.6833333
USA,North Carolina,Charlotte,NA,NA,NA,NA,NA,NA,NA,NA,NA,NA,"Sheenu Abraham, Jessica Dunn",Prospective,ht,charlotte,06,NA,19.0833333,-72.3166667,ht,charlotte,06,NA,19.0833333,-72.3166667,ht,charlotte,06,NA,19.0833333,-72.3166667
USA,North Carolina,RTP (Research Triangle Park),https://www.meetup.com/rladies-rtp/,https://twitter.com/RLadiesRTP,rtp@rladies.org,NA,NA,NA,NA,https://github.com/rladies/meetup-presentations_rtp,NA,NA,"Sheila Saia, Elaine McVey",Active,NA,NA,NA,NA,NA,NA,NA,NA,NA,NA,NA,NA,NA,NA,NA,NA,NA,NA
USA,Ohio,Cincinnati,https://www.meetup.com/rladies-cincinnati/,https://twitter.com/RLadiesCincy,cincinnati@rladies.org,NA,NA,NA,NA,NA,NA,NA,Renata Gerecke,Active,co,cincinnati,38,NA,11.105278,-74.089706,co,cincinnati,38,NA,11.105278,-74.089706,co,cincinnati,38,NA,11.105278,-74.089706
USA,Ohio,Columbus,https://www.meetup.com/rladies-columbus/,https://twitter.com/RLadiesColumbus,columbus@rladies.org,NA,NA,NA,NA,https://github.com/rladies/meetup-presentations_columbus,NA,NA,"Ezgi Karaesmen, Katie Sasso, Genelle Denzin",Active,us,columbus,AL,NA,33.758055600000006,-86.7533333,us,columbus,AL,NA,33.758055600000006,-86.7533333,us,columbus,AL,NA,33.758055600000006,-86.7533333
USA,Ohio,Oxford,https://www.meetup.com/rladies-oxford-ohio,NA,oxford-ohio@rladies.org,NA,NA,NA,NA,NA,NA,NA,"Sandy Steiger, Skyler Perry",Active,bb,oxford,07,NA,13.2833333,-59.6,bb,oxford,07,NA,13.2833333,-59.6,bb,oxford,07,NA,13.2833333,-59.6
USA,Oregon,Portland,https://www.meetup.com/rladies-pdx/,https://twitter.com/RLadiesPDX,pdx@rladies.org,NA,NA,NA,NA,https://github.com/rladies/meetup-presentations_portland,NA,NA,"Augustina Ragwitz, Deeksha Thati, Alison Presmanes Hill",Active,au,portland,02,NA,-33.35709,149.98147600000001,au,portland,02,NA,-33.35709,149.98147600000001,au,portland,02,NA,-33.35709,149.98147600000001
USA,Pennsylvania,Harrisburg,NA,NA,NA,NA,NA,NA,NA,NA,NA,NA,Erin Feaser,Prospective,lr,harrisburg,14,NA,6.4777778,-10.6605556,lr,harrisburg,14,NA,6.4777778,-10.6605556,lr,harrisburg,14,NA,6.4777778,-10.6605556
USA,Pennsylvania,Philadelphia,https://www.meetup.com/rladies-philly/,https://twitter.com/RLadiesPhilly,philly@rladies.org,NA,NA,NA,NA,https://github.com/rladies/meetup-presentations_philadelphia,http://www.rladiesphilly.org/,NA,"Darina Chudnovskaya, Karla Fettich, Amy Goodwin Davies, Jessie Pluto, Chun Su, Alice Walsh",Active,br,philadelphia,24,NA,-9.1,-61.666667000000004,br,philadelphia,24,NA,-9.1,-61.666667000000004,br,philadelphia,24,NA,-9.1,-61.666667000000004
USA,Pennsylvania,Pittsburgh,NA,NA,pittsburgh@rladies.org,NA,NA,NA,NA,NA,NA,NA,"Jane Kong, Elan Parsons",Prospective,ca,pittsburgh,08,NA,44.333333,-76.333333,ca,pittsburgh,08,NA,44.333333,-76.333333,ca,pittsburgh,08,NA,44.333333,-76.333333
USA,Pennsylvania,State College,NA,NA,NA,NA,NA,NA,NA,NA,NA,NA,Elizabeth Eisenhauer,Prospective,us,state college,GA,NA,32.5375,-83.89527779999999,us,state college,GA,NA,32.5375,-83.89527779999999,us,state college,GA,NA,32.5375,-83.89527779999999
USA,Rhode Island,Providence,NA,NA,NA,NA,NA,NA,NA,NA,NA,NA,Sarah Eltinge,Prospective,bb,providence,01,NA,13.066666699999999,-59.5166667,bb,providence,01,NA,13.066666699999999,-59.5166667,bb,providence,01,NA,13.066666699999999,-59.5166667
USA,Tennessee,Memphis,https://www.meetup.com/rladies-memphis,https://twitter.com/RLadiesMemphis,memphis@rladies.org,NA,NA,NA,NA,NA,NA,NA,Scarlett Evans,Retired on 29-09-2019,us,memphis,AL,NA,31.1325,-85.3755556,us,memphis,AL,NA,31.1325,-85.3755556,us,memphis,AL,NA,31.1325,-85.3755556
USA,Tennessee,Nashville,https://www.meetup.com/rladies-nashville/,https://twitter.com/RLadiesNash,nashville@rladies.org,NA,NA,NA,NA,https://github.com/rladies-nashville,NA,NA,"Lucy D'Agostino McGowan, Mary van Valkenburg",Active,us,nashville,AR,NA,33.945555600000006,-93.8469444,us,nashville,AR,NA,33.945555600000006,-93.8469444,us,nashville,AR,NA,33.945555600000006,-93.8469444
USA,Texas,Austin,https://www.meetup.com/rladies-austin/,https://twitter.com/RLadiesAustin,austin@rladies.org,NA,NA,NA,NA,https://github.com/rladies/meetup-presentations_austin,NA,NA,"Victoria Valencia, Caitlin Hudon",Active,br,austin,21,NA,-22.720978,-43.527516999999996,br,austin,21,NA,-22.720978,-43.527516999999996,br,austin,21,NA,-22.720978,-43.527516999999996
USA,Texas,Dallas,https://www.meetup.com/rladies-dallas/,https://twitter.com/DallasRladies,dallas@rladies.org,NA,NA,NA,NA,NA,NA,NA,Sydeaka Watson,Active,ca,dallas,03,NA,51.383333,-97.483333,ca,dallas,03,NA,51.383333,-97.483333,ca,dallas,03,NA,51.383333,-97.483333
USA,Texas,El Paso,https://www.meetup.com/rladies-el-paso/,https://twitter.com/RLadiesElPaso,elpaso@rladies.org,NA,NA,NA,NA,https://github.com/rladies/meetup-presentations_el-paso,NA,NA,Elise Bell,Active,ar,el paso,20,NA,-49.985133000000005,-68.914673,ar,el paso,20,NA,-49.985133000000005,-68.914673,ar,el paso,20,NA,-49.985133000000005,-68.914673
USA,Texas,Houston,https://www.meetup.com/rladies-houston/,NA,houston@rladies.org,NA,NA,NA,NA,NA,NA,NA,"Erin Hodgess, Jennifer Cai, Tulasi NARAYANAN Aayer",Active,ca,houston,02,2884,54.4,-126.65,ca,houston,02,2884,54.4,-126.65,ca,houston,02,2884,54.4,-126.65
USA,Texas,San Antonio,NA,NA,sanantonio@rladies.org,NA,NA,NA,NA,NA,NA,NA,Emily Stone,Prospective,ao,san antonio,16,NA,-6.1349029999999996,12.368935,ao,san antonio,16,NA,-6.1349029999999996,12.368935,ao,san antonio,16,NA,-6.1349029999999996,12.368935
USA,Utah,Provo,NA,NA,provo@rladies.org,NA,NA,NA,NA,NA,NA,NA,"Megdalynn Fisher, Katie Olson",Prospective,ba,provo,01,NA,43.3858333,17.6497222,ba,provo,01,NA,43.3858333,17.6497222,ba,provo,01,NA,43.3858333,17.6497222
USA,Virginia,Charlottesville,https://www.meetup.com/rladies-charlottesville/,https://twitter.com/rladiescville,charlottesville@rladies.org,NA,NA,NA,NA,https://github.com/rladies/meetup-presentations_charlottesville,NA,NA,Samantha Toet,Active,us,charlottesville,IN,NA,39.7902778,-85.61277779999999,us,charlottesville,IN,NA,39.7902778,-85.61277779999999,us,charlottesville,IN,NA,39.7902778,-85.61277779999999
USA,Virginia,Richmond,NA,NA,NA,NA,NA,NA,NA,NA,NA,NA,Erin Britton,Prospective,au,richmond,02,NA,-33.59956,150.751419,au,richmond,02,NA,-33.59956,150.751419,au,richmond,02,NA,-33.59956,150.751419
USA,Virginia,Woodbridge,NA,NA,NA,NA,NA,NA,NA,NA,NA,NA,Rida Naseem,Prospective,au,woodbridge,06,NA,-43.159561,147.237442,au,woodbridge,06,NA,-43.159561,147.237442,au,woodbridge,06,NA,-43.159561,147.237442
USA,Washington,D.C.,https://www.meetup.com/rladies-dc/,https://twitter.com/RLadiesDC,dc@rladies.org,NA,NA,NA,NA,https://github.com/rladies/meetup-presentations_dc,NA,NA,"Kelly Obriant, Pri Oberoi",Active,NA,NA,NA,NA,NA,NA,NA,NA,NA,NA,NA,NA,NA,NA,NA,NA,NA,NA
USA,Washington,Seattle,https://www.meetup.com/rladies-seattle/,https://twitter.com/RLadiesSeattle,seattle@rladies.org,NA,NA,NA,NA,https://github.com/rladies-seattle,https://rladiesseattle.org/,https://rladies-sea.slack.com/,"Chaya Eastwood Jones, Monica Gerber, Isabella Velásquez",Active,us,seattle,WA,569369,47.6063889,-122.33083329999998,us,seattle,WA,569369,47.6063889,-122.33083329999998,us,seattle,WA,569369,47.6063889,-122.33083329999998
USA,Washington,Tacoma,NA,NA,NA,NA,NA,NA,NA,NA,NA,NA,Alexandra Gore,Prospective,bo,tacoma,04,NA,-16.3,-67.45,bo,tacoma,04,NA,-16.3,-67.45,bo,tacoma,04,NA,-16.3,-67.45
USA,Wisconsin,Madison,NA,NA,NA,NA,NA,NA,NA,NA,NA,NA,"Nichole Webster, Eshara Mondal",Prospective,ca,madison,11,NA,51.216667,-109.016667,ca,madison,11,NA,51.216667,-109.016667,ca,madison,11,NA,51.216667,-109.016667
Vietnam,NA,Ha Noi,https://www.meetup.com/rladies-ha-noi/,NA,NA,NA,NA,NA,NA,NA,NA,NA,Linh Dieu,Active,vn,ha noi,44,1431377,21.033333,105.85,vn,ha noi,44,1431377,21.033333,105.85,vn,ha noi,44,1431377,21.033333,105.85
